data_format,development_key,status,year_completed,clue_small_area,clue_block,street_address,property_id,property_id_2,property_id_3,property_id_4,property_id_5,floors_above,resi_dwellings,studio_dwe,one_bdrm_dwe,two_bdrm_dwe,three_bdrm_dwe,student_apartments,student_beds,student_accommodation_units,institutional_accom_beds,hotel_rooms,serviced_apartments,hotels_serviced_apartments,hostel_beds,childcare_places,office_flr,retail_flr,industrial_flr,storage_flr,education_flr,hospital_flr,recreation_flr,publicdispaly_flr,community_flr,car_spaces,bike_spaces,town_planning_application,longitude,latitude,geopoint
Pre May 16,X000568,COMPLETED,2012,West Melbourne (Residential),411,1-13 Abbotsford Street WEST MELBOURNE VIC 3003,100001,,,,,3,10,0,0,4,6,0,0,0,0,0,0,0,0,0,0,0,0,0,0,0,0,0,0,0,0,0,144.9432805,-37.80791988,"-37.80791988, 144.9432805"
Pre May 16,X000557,COMPLETED,2002,West Melbourne (Residential),401,7-21 Anderson Street WEST MELBOURNE VIC 3003,100435,,,,,5,31,0,0,0,0,0,0,0,0,0,0,0,0,0,0,0,0,0,0,0,0,0,0,0,0,0,144.9415469,-37.80477682,"-37.80477682, 144.9415469"
Pre May 16,X000448,COMPLETED,2015,North Melbourne,314,302-308 Arden Street NORTH MELBOURNE VIC 3051,100509,,,,,1,0,0,0,0,0,0,0,0,0,0,0,0,0,0,0,0,1064,0,0,0,0,0,0,24,6,0,144.9377236,-37.79925034,"-37.79925034, 144.9377236"
Pre May 16,X000458,COMPLETED,2004,North Melbourne,330,162-168 Arden Street NORTH MELBOURNE VIC 3051,100519,,,,,2,16,0,0,0,0,0,0,0,0,0,0,0,0,0,0,0,0,0,0,0,0,0,0,0,0,0,144.9462277,-37.80032041,"-37.80032041, 144.9462277"
Pre May 16,X000996,COMPLETED,2013,North Melbourne,1012,201 Arden Street NORTH MELBOURNE VIC 3051,100552,,,,,1,0,0,0,0,0,0,0,0,0,0,0,0,0,0,0,0,0,0,0,0,0,0,0,0,0,0,144.9410467,-37.80029861,"-37.80029861, 144.9410467"
Pre May 16,X000955,COMPLETED,2002,Parkville,903,192-198 The Avenue PARKVILLE VIC 3052,100615,,,,,4,42,0,0,0,0,0,0,0,0,0,0,0,0,0,0,0,0,0,0,0,0,0,0,0,0,0,144.9578135,-37.78295736,"-37.78295736, 144.9578135"
Pre May 16,X000404,COMPLETED,2013,Carlton,260,97-115 Berkeley Street MELBOURNE VIC 3000,101043,,,,,12,0,0,0,0,0,0,188,188,0,0,0,0,0,0,0,0,0,0,0,0,0,0,0,0,0,0,144.9587954,-37.80310281,"-37.80310281, 144.9587954"
Pre May 16,X000532,COMPLETED,2003,North Melbourne,375,4-12 Blackwood Street NORTH MELBOURNE VIC 3051,101096,,,,,4,13,0,0,0,0,0,0,0,0,0,0,0,0,0,572,0,0,0,0,0,0,0,0,0,0,0,144.9547459,-37.80191511,"-37.80191511, 144.9547459"
Pre May 16,X000122,COMPLETED,2010,Melbourne (CBD),48,65-71 Bourke Street MELBOURNE VIC 3000,101114,,,,,2,0,0,0,0,0,0,0,0,0,0,0,0,0,0,1191,0,0,0,0,0,0,0,0,0,0,0,144.9714501,-37.81227537,"-37.81227537, 144.9714501"
Pre May 16,X000124,COMPLETED,2006,Melbourne (CBD),51,636-638 Bourke Street MELBOURNE VIC 3000,101169,,,,,5,0,0,0,0,0,0,0,0,0,5,45,50,0,0,0,0,0,0,0,0,0,0,0,0,0,0,144.9547125,-37.81628199,"-37.81628199, 144.9547125"
Pre May 16,X000129,COMPLETED,2015,Melbourne (CBD),52,562-574 Bourke Street MELBOURNE VIC 3000,101173,,,,,13,0,0,0,0,0,0,0,0,0,0,0,0,0,0,14881,560,0,0,0,0,325,0,0,0,341,0,144.9567556,-37.8155088,"-37.8155088, 144.9567556"
Pre May 16,X000135,COMPLETED,2010,Melbourne (CBD),55,314-336 Bourke Street MELBOURNE VIC 3000,101194,,,,,9,0,0,0,0,0,0,0,0,0,0,0,0,0,0,0,0,0,0,0,0,0,0,0,0,0,0,144.9638271,-37.81344774,"-37.81344774, 144.9638271"
Pre May 16,X000142,COMPLETED,2009,Melbourne (CBD),57,140 East 134-144 Bourke Street MELBOURNE VIC 3000,101213,,,,,13,0,0,0,0,0,0,0,0,0,0,0,0,0,0,6429,314,0,0,0,0,0,0,0,0,0,0,144.9688374,-37.81202281,"-37.81202281, 144.9688374"
Pre May 16,X000411,COMPLETED,2008,Carlton,263,The Bellagio Carlton 63-69 Bouverie Street CARLTON VIC 3053,101242,,,,,8,44,0,0,0,0,0,0,0,0,0,0,0,0,0,0,230,0,0,0,0,0,0,0,0,0,0,144.9613774,-37.80495785,"-37.80495785, 144.9613774"
Pre May 16,X000412,COMPLETED,2012,Carlton,263,71-79 Bouverie Street CARLTON VIC 3053,101243,,,,,8,0,0,0,0,0,88,0,88,0,0,0,0,0,0,40,0,0,0,0,0,180,0,0,0,0,0,144.961409,-37.80478096,"-37.80478096, 144.961409"
Pre May 16,X000390,COMPLETED,2003,Carlton,257,117-121 Bouverie Street CARLTON VIC 3053,101245,,,,,4,0,0,0,0,0,39,0,39,0,0,0,0,0,0,300,0,0,0,0,0,0,0,0,0,0,0,144.9615731,-37.80376613,"-37.80376613, 144.9615731"
Pre May 16,X000369,COMPLETED,2002,Carlton,245,203-225 Cardigan Street CARLTON VIC 3053,101608,,,,,4,33,0,0,0,0,0,0,0,0,0,0,0,0,0,0,0,0,0,0,0,0,0,0,0,0,0,144.9649452,-37.80170813,"-37.80170813, 144.9649452"
Pre May 16,X000439,COMPLETED,2006,Parkville,271,Ormond College 29-55 College Crescent PARKVILLE VIC 3052,102052,,,,,3,0,0,0,0,0,0,0,0,0,0,0,0,0,0,6082,0,0,0,0,0,0,0,0,0,0,0,144.9605351,-37.7930669,"-37.7930669, 144.9605351"
Pre May 16,X000059,COMPLETED,2012,Melbourne (CBD),25,287-301 Collins Street MELBOURNE VIC 3000,102087,,,,,9,0,0,0,0,0,0,0,0,0,0,0,0,0,0,1174,0,0,0,0,0,0,0,0,0,0,0,144.9644915,-37.81642214,"-37.81642214, 144.9644915"
Pre May 16,X000603,COMPLETED,2015,West Melbourne (Residential),439,52-54 Dudley Street WEST MELBOURNE VIC 3003,102972,,,,,5,0,0,0,0,0,0,0,0,0,20,0,20,0,0,0,0,0,0,0,0,0,0,0,1,0,0,144.9534802,-37.80866622,"-37.80866622, 144.9534802"
Pre May 16,X000341,COMPLETED,2008,Carlton,208,230-232 Elgin Street CARLTON VIC 3053,103127,,,,,3,13,0,0,0,0,0,0,0,0,0,0,0,0,0,0,0,0,0,0,0,0,0,0,0,0,0,144.9665749,-37.79681346,"-37.79681346, 144.9665749"
Pre May 16,X000511,COMPLETED,2014,North Melbourne,362,587-589 Elizabeth Street MELBOURNE VIC 3000,103244,,,,,10,55,0,28,27,0,0,0,0,0,0,0,0,0,0,0,140,0,0,0,0,0,0,0,0,0,0,144.9581241,-37.80460726,"-37.80460726, 144.9581241"
Pre May 16,X000364,COMPLETED,2013,Carlton,239,786-798 Elizabeth Street MELBOURNE VIC 3000,103257,,,,,10,0,0,0,0,0,0,0,0,0,0,0,0,0,0,0,0,0,0,8000,0,0,0,0,0,0,0,144.9582638,-37.80007242,"-37.80007242, 144.9582638"
Pre May 16,X000111,COMPLETED,2009,Melbourne (CBD),47,113-149 Exhibition Street MELBOURNE VIC 3000,103597,,,,,22,0,0,0,0,0,0,0,0,0,0,0,0,0,0,43619,1250,0,0,0,0,0,0,0,0,0,0,144.9701094,-37.81281423,"-37.81281423, 144.9701094"
Pre May 16,X000235,COMPLETED,2009,Melbourne (CBD),87,Fraser Place Melbourne 17-19 Exploration Lane MELBOURNE VIC 3000,103631,,,,,14,0,0,0,0,0,0,0,0,0,0,58,58,0,0,0,130,0,0,0,0,0,0,0,0,0,0,144.9680775,-37.80895367,"-37.80895367, 144.9680775"
Pre May 16,X000550,COMPLETED,2012,North Melbourne,378,Unilodge on Villiers Apartments 51-63 Villiers Street NORTH MELBOURNE VIC 3051,103818,,,,,10,0,0,0,0,0,246,0,246,0,0,0,0,0,0,0,0,0,0,0,0,0,0,0,2,134,0,144.9533473,-37.7989505,"-37.7989505, 144.9533473"
Pre May 16,X000032,COMPLETED,2009,Melbourne (CBD),17,The Duke 142-148 Flinders Street MELBOURNE VIC 3000,104021,,,,,9,0,0,0,0,0,0,0,0,0,0,0,0,0,0,1900,0,0,0,0,0,0,0,0,0,0,0,144.9700863,-37.8164075,"-37.8164075, 144.9700863"
Pre May 16,X000944,COMPLETED,2011,Melbourne (Remainder),850,Yarra Boathouses 1-7 Boathouse Drive MELBOURNE VIC 3004,105113,,,,,3,0,0,0,0,0,0,0,0,0,0,0,0,0,0,0,0,550,0,0,0,0,0,0,0,0,0,144.9705641,-37.81990552,"-37.81990552, 144.9705641"
Pre May 16,X000359,COMPLETED,2003,Carlton,227,101-111 Neill Street CARLTON VIC 3053,105188,,,,,3,11,0,0,0,0,0,0,0,0,0,0,0,0,0,0,0,0,0,0,0,0,0,0,0,0,0,144.9716134,-37.79470004,"-37.79470004, 144.9716134"
Pre May 16,X000625,COMPLETED,2012,West Melbourne (Industrial),502,133-165 Kensington Road WEST MELBOURNE VIC 3003,105221,,,,,1,0,0,0,0,0,0,0,0,0,0,0,0,0,0,2700,0,0,5738,0,0,0,0,0,0,0,0,144.9191747,-37.79963865,"-37.79963865, 144.9191747"
Pre May 16,X000272,COMPLETED,2008,Melbourne (CBD),97,58-66 La Trobe Street MELBOURNE VIC 3000,105491,,,,,4,33,0,0,0,0,0,0,0,0,0,0,0,0,0,0,0,0,0,0,0,0,0,0,0,0,0,144.9669434,-37.80829651,"-37.80829651, 144.9669434"
Pre May 16,X000388,COMPLETED,2011,Carlton,257,100-106 Leicester Street CARLTON VIC 3053,105524,,,,,10,0,0,0,0,0,0,0,0,0,0,0,0,0,0,0,0,0,0,6300,0,0,0,0,0,0,0,144.9608578,-37.80370838,"-37.80370838, 144.9608578"
Pre May 16,X000173,COMPLETED,2006,Melbourne (CBD),68,23-33 Lonsdale Street MELBOURNE VIC 3000,105669,,,,,29,0,0,0,0,0,0,0,0,0,0,143,143,0,0,0,0,0,0,0,0,0,0,0,0,0,0,144.9713817,-37.80989265,"-37.80989265, 144.9713817"
Pre May 16,X000171,COMPLETED,2004,Melbourne (CBD),67,139-143 Lonsdale Street MELBOURNE VIC 3000,105680,,,,,16,0,0,0,0,0,0,0,0,0,0,89,89,0,0,146,37,0,0,0,0,0,0,0,0,0,0,144.9682613,-37.81078621,"-37.81078621, 144.9682613"
Pre May 16,X000163,COMPLETED,2014,Melbourne (CBD),65,269-321 Lonsdale Street MELBOURNE VIC 3000,105698,,,,,5,0,0,0,0,0,0,0,0,0,0,0,0,0,0,0,42000,0,0,0,0,0,0,0,0,0,0,144.9639296,-37.81247167,"-37.81247167, 144.9639296"
Pre May 16,X000154,COMPLETED,2013,Melbourne (CBD),61,617-639 Lonsdale Street MELBOURNE VIC 3000,105718,,,,,47,699,0,423,276,0,0,0,0,0,0,0,0,0,0,0,0,0,0,0,0,0,0,0,0,0,0,144.9536247,-37.81542152,"-37.81542152, 144.9536247"
Pre May 16,X000193,COMPLETED,2002,Melbourne (CBD),74,University City Apartments 402-408 Lonsdale Street MELBOURNE VIC 3000,105737,,,,,13,0,0,0,0,0,214,0,214,0,0,0,0,0,0,97,195,0,0,0,0,0,0,0,0,0,0,144.9603272,-37.81245056,"-37.81245056, 144.9603272"
Pre May 16,X000195,COMPLETED,2003,Melbourne (CBD),76,QV Village 278-300 Swanston Street MELBOURNE VIC 3000,105749,,,,,31,0,0,0,0,0,0,0,0,0,0,0,0,0,0,44840,32834,0,0,0,0,0,0,0,0,0,0,144.965725,-37.81067869,"-37.81067869, 144.965725"
Pre May 16,X000130,COMPLETED,2004,Melbourne (CBD),53,451-457 Little Bourke Street MELBOURNE VIC 3000,105854,,,,,5,0,0,0,0,0,0,0,0,0,0,0,0,0,0,2404,0,0,0,0,0,0,0,0,0,0,0,144.959416,-37.81446338,"-37.81446338, 144.959416"
Pre May 16,X000164,COMPLETED,2002,Melbourne (CBD),65,Break Free (Heritage on Little Bourke) 318-322 Little Bourke Street MELBOURNE VIC 3000,105875,,,,,13,0,0,0,0,0,0,0,0,0,0,61,61,0,0,0,0,0,0,0,0,0,0,0,0,0,0,144.9631275,-37.81292592,"-37.81292592, 144.9631275"
Pre May 16,X000090,COMPLETED,2014,Melbourne (CBD),38,25-35 Little Collins Street MELBOURNE VIC 3000,105910,,,,,32,187,0,0,0,0,0,0,0,0,174,0,174,0,0,0,0,0,0,0,0,306,0,0,40,52,0,144.9727056,-37.81289879,"-37.81289879, 144.9727056"
Pre May 16,X000186,COMPLETED,2014,Melbourne (CBD),72,Metro Park West Apartments 557-561 Little Lonsdale Street MELBOURNE VIC 3000,106024,,,,,25,195,0,160,35,0,0,0,0,0,0,0,0,0,0,0,0,0,0,0,0,0,0,0,0,60,0,144.9553662,-37.81335272,"-37.81335272, 144.9553662"
Pre May 16,X000371,COMPLETED,2008,Carlton,247,204-218 Lygon Street CARLTON VIC 3053,106237,,,,,7,0,0,0,0,0,0,0,0,0,0,0,0,0,0,7581,328,0,0,0,0,0,0,0,0,0,0,144.9671431,-37.80218764,"-37.80218764, 144.9671431"
Pre May 16,X000376,COMPLETED,2003,Carlton,252,98-126 Lygon Street CARLTON VIC 3053,106250,,,,,5,16,0,0,0,0,0,0,0,0,0,0,0,0,0,0,362,0,0,0,0,0,0,0,0,0,0,144.9667019,-37.80443771,"-37.80443771, 144.9667019"
Pre May 16,X000446,COMPLETED,2011,North Melbourne,309,287-313 MacAulay Road NORTH MELBOURNE VIC 3051,106303,,,,,2,0,0,0,0,0,0,0,0,0,0,0,0,0,0,0,0,0,0,2803,0,0,0,0,0,0,0,144.9371088,-37.79545188,"-37.79545188, 144.9371088"
Pre May 16,X000099,COMPLETED,2004,Melbourne (CBD),44,18-22 McKillop Street MELBOURNE VIC 3000,106374,,,,,7,12,0,0,0,0,0,0,0,0,0,0,0,0,0,0,0,0,0,0,0,0,0,0,0,0,0,144.9618186,-37.8151458,"-37.8151458, 144.9618186"
Pre May 16,X000961,COMPLETED,2014,Parkville,927,Evo Apartments 107-115 Manningham Street PARKVILLE VIC 3052,106408,,,,,6,175,0,14,161,0,0,0,0,0,0,0,0,0,0,0,0,0,0,0,0,0,0,0,188,0,0,144.9406843,-37.78442153,"-37.78442153, 144.9406843"
Pre May 16,X000963,COMPLETED,2014,Parkville,927,125-133 Manningham Street PARKVILLE VIC 3052,106414,,,,,2,0,0,0,0,0,0,0,0,15,0,0,0,0,0,0,0,0,0,0,0,0,0,0,0,0,0,144.9403735,-37.78384346,"-37.78384346, 144.9403735"
Pre May 16,X000431,COMPLETED,2003,Carlton,266,9-13 Earl Street CARLTON VIC 3053,107085,,,,,8,0,0,0,0,0,97,0,97,0,0,0,0,0,0,0,0,0,0,0,0,0,0,0,0,0,0,144.9654309,-37.80616681,"-37.80616681, 144.9654309"
Pre May 16,X000503,COMPLETED,2005,North Melbourne,359,140-164 Peel Street NORTH MELBOURNE VIC 3051,107528,,,,,4,54,0,0,0,0,0,0,0,0,0,0,0,0,0,0,0,0,0,0,0,0,0,0,0,0,0,144.9566607,-37.80444383,"-37.80444383, 144.9566607"
Pre May 16,X000381,COMPLETED,2014,Carlton,255,95-125 Pelham Street CARLTON VIC 3053,107541,,,,,15,118,0,92,25,1,0,0,0,0,0,0,0,0,0,0,52,0,0,0,0,0,0,0,0,40,0,144.964422,-37.80282176,"-37.80282176, 144.964422"
Pre May 16,X000987,COMPLETED,2011,Parkville,930,CSL Limited 39-79 Poplar Road PARKVILLE VIC 3052,107618,,,,,1,0,0,0,0,0,0,0,0,0,0,0,0,0,116,0,0,0,0,0,0,0,0,0,0,0,0,144.9447501,-37.78034463,"-37.78034463, 144.9447501"
Pre May 16,X000415,COMPLETED,2010,Carlton,264,205-209 Queensberry Street CARLTON VIC 3053,107869,,,,,4,0,0,0,0,0,0,0,0,0,0,0,0,0,0,827,0,0,0,0,0,0,0,0,0,0,0,144.9619971,-37.80465676,"-37.80465676, 144.9619971"
Pre May 16,X000904,COMPLETED,2015,Southbank,802,31-49 Queens Bridge Street SOUTHBANK VIC 3006,108045,,,,,67,667,0,0,0,0,0,0,0,0,0,0,0,0,0,811,250,0,0,0,0,0,0,0,611,0,0,144.9613935,-37.82293404,"-37.82293404, 144.9613935"
Pre May 16,X000133,COMPLETED,2003,Melbourne (CBD),54,184-192 Queen Street MELBOURNE VIC 3000,108104,,,,,18,0,0,0,0,0,0,0,0,0,0,0,0,0,0,2504,110,0,0,0,0,0,0,0,0,0,0,144.9606798,-37.81402804,"-37.81402804, 144.9606798"
Pre May 16,X000375,COMPLETED,2011,Carlton,251,83-95 Rathdowne Street CARLTON VIC 3053,108155,,,,,5,49,0,0,0,0,0,0,0,0,0,0,0,0,0,0,220,0,0,0,0,0,0,0,0,0,0,144.9687987,-37.80485099,"-37.80485099, 144.9687987"
Pre May 16,X000352,COMPLETED,2004,Carlton,216,349-355 Rathdowne Street CARLTON VIC 3053,108193,,,,,6,38,0,0,0,0,0,0,0,0,0,0,0,0,0,0,0,0,0,0,0,0,0,0,0,0,0,144.969914,-37.79819052,"-37.79819052, 144.969914"
Pre May 16,X000353,COMPLETED,2004,Carlton,216,357-363 Rathdowne Street CARLTON VIC 3053,108194,,,,,4,20,0,0,0,0,0,0,0,0,0,0,0,0,0,0,0,0,0,0,0,0,0,0,0,0,0,144.9699425,-37.79802699,"-37.79802699, 144.9699425"
Pre May 16,X000595,COMPLETED,2011,West Melbourne (Residential),432,42-50 Rosslyn Street WEST MELBOURNE VIC 3003,108443,,,,,5,35,0,0,0,0,0,0,0,0,0,0,0,0,0,0,0,0,0,0,0,55,0,0,0,0,0,144.9525577,-37.80740897,"-37.80740897, 144.9525577"
Pre May 16,X000304,COMPLETED,2010,Melbourne (CBD),107,380-388 Russell Street MELBOURNE VIC 3000,108561,,,,,4,0,0,0,0,0,0,0,0,0,0,0,0,28,0,0,0,0,0,0,0,0,0,0,0,0,0,144.9661017,-37.8074831,"-37.8074831, 144.9661017"
Pre May 16,X000113,COMPLETED,2002,Melbourne (CBD),47,Hero Apartments 114-120 Russell Street MELBOURNE VIC 3000,108591,,,,,15,132,0,0,0,0,0,0,0,0,0,26,26,0,0,0,1417,0,0,0,0,0,0,0,0,0,0,144.9690282,-37.81349357,"-37.81349357, 144.9690282"
Pre May 16,X000715,COMPLETED,2006,Melbourne (Remainder),724,519-539 St Kilda Road MELBOURNE VIC 3004,108646,,,,,9,300,0,0,0,0,0,0,0,0,0,0,0,0,0,0,592,0,0,0,0,0,0,0,0,0,0,144.9798741,-37.84556679,"-37.84556679, 144.9798741"
Pre May 16,X000592,COMPLETED,2008,West Melbourne (Residential),431,478-486 Spencer Street WEST MELBOURNE VIC 3003,108942,,,,,3,0,0,0,0,0,0,0,0,0,0,0,0,0,0,0,0,0,1500,0,0,0,0,0,0,0,0,144.9498257,-37.80874254,"-37.80874254, 144.9498257"
Pre May 16,X000590,COMPLETED,2007,West Melbourne (Residential),430,115-121 Stanley Street WEST MELBOURNE VIC 3003,109013,,,,,3,10,0,0,0,0,0,0,0,0,0,0,0,0,0,0,0,0,0,0,0,0,0,0,0,0,0,144.9479487,-37.80928863,"-37.80928863, 144.9479487"
Pre May 16,X000707,COMPLETED,2012,Melbourne (Remainder),660,Olympic Park 2-100 Olympic Boulevard MELBOURNE VIC 3004,109256,,,,,4,0,0,0,0,0,0,0,0,0,0,0,0,0,0,625,0,0,0,0,0,0,0,0,0,0,0,144.9824354,-37.82485516,"-37.82485516, 144.9824354"
Pre May 16,X000626,COMPLETED,2013,Kensington,503,50-60 Lloyd Street KENSINGTON VIC 3031,109449,,,,,2,0,0,0,0,0,0,0,0,0,0,0,0,0,0,65,0,1325,0,0,0,0,0,0,0,0,0,144.9299594,-37.79958628,"-37.79958628, 144.9299594"
Pre May 16,X000631,COMPLETED,2006,Kensington,503,50-60 Lloyd Street KENSINGTON VIC 3031,109449,,,,,2,0,0,0,0,0,0,0,0,0,0,0,0,0,0,1283,0,0,0,0,0,0,0,0,0,0,0,144.9299594,-37.79958628,"-37.79958628, 144.9299594"
Pre May 16,X000635,COMPLETED,2011,Kensington,503,50-60 Lloyd Street KENSINGTON VIC 3031,109449,,,,,2,0,0,0,0,0,0,0,0,0,0,0,0,0,0,65,0,487,0,0,0,0,0,0,0,0,0,144.9299594,-37.79958628,"-37.79958628, 144.9299594"
Pre May 16,X000534,COMPLETED,2005,North Melbourne,376,12-24 Tyrone Street NORTH MELBOURNE VIC 3051,109554,,,,,4,18,0,0,0,0,0,0,0,0,0,0,0,0,0,0,0,0,0,0,0,0,0,0,0,0,0,144.9543622,-37.80091468,"-37.80091468, 144.9543622"
Pre May 16,X000560,COMPLETED,2007,West Melbourne (Residential),403,Silk Apartments 493-499 Victoria Street WEST MELBOURNE VIC 3003,109756,,,,,4,28,0,0,0,0,0,0,0,0,0,0,0,0,0,0,0,0,0,0,0,0,0,0,0,0,0,144.9434493,-37.80481305,"-37.80481305, 144.9434493"
Pre May 16,X000207,COMPLETED,2004,Melbourne (CBD),82,277-287 William Street MELBOURNE VIC 3000,110108,,,,,13,0,0,0,0,0,0,0,0,0,0,0,0,0,0,1603,355,0,0,0,0,0,0,0,0,0,0,144.9563615,-37.8125206,"-37.8125206, 144.9563615"
Pre May 16,X000932,COMPLETED,2008,Southbank,812,18 Kavanagh Street SOUTHBANK VIC 3006,110416,,,,,5,11,0,0,0,0,0,0,0,0,0,0,0,0,0,1329,87,0,0,0,0,0,0,0,0,0,0,144.9660269,-37.82271891,"-37.82271891, 144.9660269"
Pre May 16,X000756,COMPLETED,2010,Southbank,748,Elm Apartments 18-24 Dorcas Street SOUTHBANK VIC 3006,110435,,,,,17,286,0,0,0,0,0,0,0,0,0,0,0,0,0,0,498,0,0,0,0,0,0,0,0,0,0,144.9695712,-37.83002099,"-37.83002099, 144.9695712"
Pre May 16,X000726,COMPLETED,2010,Southbank,732,109-117 Clarendon Street SOUTHBANK VIC 3006,110482,,,,,33,166,0,0,0,0,0,0,0,0,0,0,0,0,0,0,205,0,0,0,0,0,0,0,0,0,0,144.9584752,-37.82773625,"-37.82773625, 144.9584752"
Pre May 16,X000911,COMPLETED,2009,Southbank,804,Melbourne Convention Exhibition Centre 2-26 Clarendon Street SOUTH WHARF VIC 3006,110484,,,,,3,28,0,0,0,0,0,0,0,0,0,0,0,0,0,2188,0,0,0,0,0,0,0,0,0,0,0,144.9523045,-37.82538979,"-37.82538979, 144.9523045"
Pre May 16,X000912,COMPLETED,2009,Southbank,804,Melbourne Convention Exhibition Centre 2-26 Clarendon Street SOUTH WHARF VIC 3006,110484,,,,,2,0,0,0,0,0,0,0,0,0,0,0,0,0,0,0,60000,0,0,0,0,0,0,0,0,0,0,144.9523045,-37.82538979,"-37.82538979, 144.9523045"
Pre May 16,X000840,COMPLETED,2012,Port Melbourne,781,674-702 Lorimer Street PORT MELBOURNE VIC 3207,110515,,,,,1,0,0,0,0,0,0,0,0,0,0,0,0,0,0,0,0,5620,0,0,0,0,0,0,0,0,0,144.9233618,-37.82230248,"-37.82230248, 144.9233618"
Pre May 16,X000841,COMPLETED,2010,Port Melbourne,781,704-744 Lorimer Street PORT MELBOURNE VIC 3207,110516,,,,,1,0,0,0,0,0,0,0,0,0,0,0,0,0,0,1780,0,0,0,0,0,0,0,0,53,0,0,144.9254499,-37.82167499,"-37.82167499, 144.9254499"
Pre May 16,X000767,COMPLETED,2007,Docklands,772,Hallmarc Business Park 69-79 Lorimer Street DOCKLANDS VIC 3008,110528,,,,,2,0,0,0,0,0,0,0,0,0,0,0,0,0,0,7157,0,0,0,0,0,0,0,0,0,0,0,144.9427044,-37.82495447,"-37.82495447, 144.9427044"
Pre May 16,X000768,COMPLETED,2011,Docklands,772,81-83 Lorimer Street DOCKLANDS VIC 3008,110529,,,,,5,0,0,0,0,0,0,0,0,0,0,0,0,0,0,4266,0,0,0,0,0,0,0,0,89,0,0,144.9421449,-37.82460896,"-37.82460896, 144.9421449"
Pre May 16,X000835,COMPLETED,2010,Port Melbourne,781,49-89 Turner Street PORT MELBOURNE VIC 3207,110551,,,,,2,0,0,0,0,0,0,0,0,0,0,0,0,0,0,2000,0,500,0,0,0,0,0,0,0,0,0,144.9253878,-37.82302894,"-37.82302894, 144.9253878"
Pre May 16,X000848,COMPLETED,2002,Port Melbourne,786,157-171 Salmon Street PORT MELBOURNE VIC 3207,110588,,,,,4,0,0,0,0,0,0,0,0,0,0,0,0,0,0,5469,0,0,0,0,0,0,0,0,0,0,0,144.9212377,-37.82732829,"-37.82732829, 144.9212377"
Pre May 16,X000746,COMPLETED,2006,Southbank,744,175-187 Sturt Street SOUTHBANK VIC 3006,110617,,,,,2,0,0,0,0,0,0,0,0,0,0,0,0,0,0,1853,0,0,0,0,0,0,0,0,0,0,0,144.9662634,-37.82867473,"-37.82867473, 144.9662634"
Pre May 16,X000763,COMPLETED,2012,Southbank,752,Arts Centre Melbourne 2-128 St Kilda Road SOUTHBANK VIC 3006,110733,,,,,3,0,0,0,0,0,0,0,0,0,0,0,0,0,0,0,0,0,0,0,0,0,0,0,0,0,0,144.9681709,-37.82094593,"-37.82094593, 144.9681709"
Pre May 16,X001001,COMPLETED,2007,Docklands,1101,Spencer Outlet Centre 163-261 Spencer Street DOCKLANDS VIC 3008,110843,,,,,3,0,0,0,0,0,0,0,0,0,0,0,0,0,0,112,21158,0,0,0,0,0,0,0,0,0,0,144.95056,-37.81450443,"-37.81450443, 144.95056"
Pre May 16,X000577,COMPLETED,2011,West Melbourne (Residential),418,230-238 Roden Street WEST MELBOURNE VIC 3003,528836,,,,,3,10,0,0,0,0,0,0,0,0,0,0,0,0,0,0,0,0,0,0,0,0,0,0,0,0,0,144.9448076,-37.80972102,"-37.80972102, 144.9448076"
Pre May 16,X000547,COMPLETED,2004,North Melbourne,377,2-6 High Street NORTH MELBOURNE VIC 3051,533327,,,,,6,4,0,0,0,0,116,0,116,0,0,0,0,0,0,0,0,0,0,0,0,0,0,0,0,0,0,144.9539186,-37.79988631,"-37.79988631, 144.9539186"
Pre May 16,X000408,COMPLETED,2014,Carlton,263,2-14 Leicester Street CARLTON VIC 3053,533992,,,,,19,283,0,197,86,0,0,0,0,0,0,0,0,0,0,0,397,0,0,0,0,0,0,0,85,0,0,144.9603004,-37.80604262,"-37.80604262, 144.9603004"
Pre May 16,X000284,COMPLETED,2015,Melbourne (CBD),103,Infinity 8 Apartments 243-263 Franklin Street MELBOURNE VIC 3000,554417,,,,,12,54,0,22,32,0,0,0,0,0,0,0,0,0,0,0,80,0,0,0,0,0,0,0,0,0,0,144.9566355,-37.80969653,"-37.80969653, 144.9566355"
Pre May 16,X000286,COMPLETED,2012,Melbourne (CBD),103,Infinity 8 Apartments 243-263 Franklin Street MELBOURNE VIC 3000,554417,,,,,19,168,0,0,0,0,0,0,0,0,0,0,0,0,0,0,0,0,0,0,0,0,0,0,0,0,0,144.9566355,-37.80969653,"-37.80969653, 144.9566355"
Pre May 16,X001120,COMPLETED,2002,Docklands,1109,The Arkley 16-32 Rakaia Way DOCKLANDS VIC 3008,560001,,,,,23,154,0,0,0,0,0,0,0,0,0,22,22,0,0,453,425,0,0,0,0,0,0,0,0,0,0,144.94123,-37.81459063,"-37.81459063, 144.94123"
Pre May 16,X001107,COMPLETED,2002,Docklands,1109,24-42 Newquay Promenade DOCKLANDS VIC 3008,560004,,,,,5,413,0,0,0,0,0,0,0,0,0,0,0,0,0,547,382,0,0,0,0,0,0,0,0,0,0,144.9421716,-37.81436322,"-37.81436322, 144.9421716"
Pre May 16,X000921,COMPLETED,2014,Southbank,810,110-120 Kavanagh Street SOUTHBANK VIC 3006,570683,,,,,37,409,0,116,259,34,0,0,0,0,0,0,0,0,0,0,0,0,0,0,0,0,0,0,337,355,0,144.9620594,-37.82548253,"-37.82548253, 144.9620594"
Pre May 16,X000875,COMPLETED,2015,Port Melbourne,790,294-308 Lorimer Street PORT MELBOURNE VIC 3207,570827,,,,,2,0,0,0,0,0,0,0,0,0,0,0,0,0,0,416,415,0,2158,0,0,0,0,0,66,0,0,144.9073333,-37.82542011,"-37.82542011, 144.9073333"
Pre May 16,X000505,COMPLETED,2007,North Melbourne,361,1-7 O'Connell Street NORTH MELBOURNE VIC 3051,573297,,,,,3,27,0,0,0,0,0,0,0,0,0,0,0,0,0,55,0,0,0,0,0,0,0,0,0,0,0,144.957983,-37.80571983,"-37.80571983, 144.957983"
Pre May 16,X001110,COMPLETED,2003,Docklands,1109,The Nolan 37-43 Caravel Lane DOCKLANDS VIC 3008,573327,,,,,25,204,0,0,0,0,0,0,0,0,0,0,0,0,0,0,391,0,0,0,0,0,0,0,0,0,0,144.9406747,-37.81492046,"-37.81492046, 144.9406747"
Pre May 16,X001027,COMPLETED,2013,Docklands,1103,Bourke Junction 700-704 Bourke Street DOCKLANDS VIC 3008,573401,,,,,16,0,0,0,0,0,0,0,0,0,0,0,0,0,0,59424,1276,0,0,0,0,0,2245,0,145,600,0,144.9493798,-37.81717768,"-37.81717768, 144.9493798"
Pre May 16,X000675,COMPLETED,2003,Kensington,559,Vue Apartments 56-80 Speakmen Street KENSINGTON VIC 3031,573767,,,,,12,175,0,0,0,0,0,0,0,0,0,0,0,0,0,0,0,0,0,0,0,0,0,0,0,0,0,144.9163012,-37.79379843,"-37.79379843, 144.9163012"
Pre May 16,X001031,COMPLETED,2007,Docklands,1104,Watergate Apartments 2-24 Waterview Walk DOCKLANDS VIC 3008,576023,,,,,6,73,0,0,0,0,0,0,0,0,0,0,0,0,0,2226,581,0,0,0,0,0,0,0,0,0,0,144.9478097,-37.8191795,"-37.8191795, 144.9478097"
Pre May 16,X000589,COMPLETED,2004,West Melbourne (Residential),428,227-235 Roden Street WEST MELBOURNE VIC 3003,579360,,,,,3,11,0,0,0,0,0,0,0,0,0,0,0,0,0,0,0,0,0,0,0,0,0,0,0,0,0,144.9453763,-37.81008162,"-37.81008162, 144.9453763"
Pre May 16,X000771,COMPLETED,2013,Docklands,773,Yarra Point Apartments 1-13 Point Park Crescent DOCKLANDS VIC 3008,579363,,,,,31,201,0,51,101,49,0,0,0,0,0,0,0,0,0,0,0,0,0,0,0,0,0,0,0,0,0,144.9412209,-37.82355726,"-37.82355726, 144.9412209"
Pre May 16,X000702,COMPLETED,2009,East Melbourne,655,239-293 Wellington Parade South EAST MELBOURNE VIC 3002,580629,,,,,18,85,0,0,0,0,0,0,0,0,0,0,0,0,0,5637,0,0,0,0,0,0,0,0,0,0,0,144.9758795,-37.81643413,"-37.81643413, 144.9758795"
Pre May 16,X000469,COMPLETED,2014,North Melbourne,336,714-720 Queensberry Street NORTH MELBOURNE VIC 3051,585863,,,,,4,26,0,4,13,9,0,0,0,0,0,0,0,0,0,0,0,0,0,0,0,0,0,0,31,0,0,144.94336,-37.80205375,"-37.80205375, 144.94336"
Pre May 16,X001051,COMPLETED,2005,Docklands,1105,V1 Village Docklands 8-18 McCrae Street DOCKLANDS VIC 3008,588061,,,,,19,189,0,0,0,0,0,0,0,0,0,0,0,0,0,0,190,0,0,0,0,0,0,0,0,0,0,144.9507623,-37.82150808,"-37.82150808, 144.9507623"
Pre May 16,X000651,COMPLETED,2004,Kensington,520,4-12 Derby Street KENSINGTON VIC 3031,589627,,,,,3,5,0,0,0,0,0,0,0,0,0,0,0,0,0,0,0,0,0,0,0,0,0,0,0,0,0,144.9263608,-37.79535005,"-37.79535005, 144.9263608"
Pre May 16,X000396,COMPLETED,2007,Carlton,258,127-133 Leicester Street CARLTON VIC 3053,592858,,,,,9,0,0,0,0,0,106,0,106,0,0,0,0,0,0,0,0,0,0,0,0,0,0,0,0,0,0,144.9602109,-37.80290284,"-37.80290284, 144.9602109"
Pre May 16,X000871,COMPLETED,2011,Port Melbourne,790,27-39 Wirraway Drive PORT MELBOURNE VIC 3207,593746,,,,,2,0,0,0,0,0,0,0,0,0,0,0,0,0,0,0,0,0,0,0,0,0,0,0,26,0,0,144.909235,-37.82589144,"-37.82589144, 144.909235"
Pre May 16,X000367,COMPLETED,2009,Carlton,242,Melbourne University 197-235 Bouverie Street CARLTON VIC 3053,101255,,,,,5,0,0,0,0,0,0,10,10,0,0,0,0,0,0,0,0,0,0,0,0,0,0,0,0,0,0,144.9616182,-37.80103675,"-37.80103675, 144.9616182"
Pre May 16,X000329,COMPLETED,2011,Carlton,203,437-439 Cardigan Street CARLTON VIC 3053,101629,,,,,2,0,0,0,0,0,0,14,14,0,0,0,0,0,0,0,0,0,0,0,0,0,0,0,0,0,0,144.9659805,-37.7958311,"-37.7958311, 144.9659805"
Pre May 16,X000688,COMPLETED,2009,East Melbourne,615,126-158 Clarendon Street EAST MELBOURNE VIC 3002,102007,,,,,5,18,0,0,0,0,0,0,0,0,0,0,0,0,0,0,0,0,0,0,0,0,0,0,0,0,0,144.9841024,-37.812282,"-37.812282, 144.9841024"
Pre May 16,X000507,COMPLETED,2012,North Melbourne,361,2-14 Cobden Street NORTH MELBOURNE VIC 3051,102045,,,,,4,0,0,0,0,0,38,0,38,0,0,0,0,0,0,0,0,0,0,0,0,0,0,0,0,0,0,144.9574951,-37.80552735,"-37.80552735, 144.9574951"
Pre May 16,X000437,COMPLETED,2007,Parkville,271,St Hilda's College 19-27 College Crescent PARKVILLE VIC 3052,102051,,,,,5,0,0,0,0,0,0,21,21,0,0,0,0,0,0,0,0,0,0,0,0,0,0,0,0,0,0,144.9625605,-37.79262915,"-37.79262915, 144.9625605"
Pre May 16,X000438,COMPLETED,2014,Parkville,271,Ormond College 29-55 College Crescent PARKVILLE VIC 3052,102052,,,,,3,0,0,0,0,0,0,20,20,0,0,0,0,0,0,0,0,0,0,0,0,0,0,0,0,0,0,144.9605351,-37.7930669,"-37.7930669, 144.9605351"
Pre May 16,X000057,COMPLETED,2009,Melbourne (CBD),25,241-245 Collins Street MELBOURNE VIC 3000,102081,,,,,5,30,0,0,0,0,0,0,0,0,0,0,0,0,0,0,0,0,0,0,0,0,0,0,0,0,0,144.9658297,-37.81606227,"-37.81606227, 144.9658297"
Pre May 16,X000068,COMPLETED,2015,Melbourne (CBD),31,568-580 Collins Street MELBOURNE VIC 3000,102112,,,,,67,588,0,0,0,0,0,0,0,0,0,0,0,0,0,1100,288,0,0,0,0,0,0,0,266,190,0,144.9554242,-37.81836589,"-37.81836589, 144.9554242"
Pre May 16,X000076,COMPLETED,2008,Melbourne (CBD),33,454-456 Collins Street MELBOURNE VIC 3000,102122,,,,,11,0,0,0,0,0,0,0,0,0,0,0,0,0,0,2275,0,0,0,0,0,0,0,0,0,0,0,144.9592317,-37.81734734,"-37.81734734, 144.9592317"
Pre May 16,X000074,COMPLETED,2012,Melbourne (CBD),33,400-402 Collins Street MELBOURNE VIC 3000,102130,,,,,7,0,0,0,0,0,0,0,0,0,0,0,0,0,0,1927,272,0,0,0,0,0,0,0,0,0,0,144.9609385,-37.8168249,"-37.8168249, 144.9609385"
Pre May 16,X000999,COMPLETED,2012,West Melbourne (Industrial),1015,142-150 Dynon Road WEST MELBOURNE VIC 3003,103005,,,,,2,0,0,0,0,0,0,0,0,0,0,0,0,0,0,0,0,0,0,945,0,0,0,0,0,0,0,144.930412,-37.80291641,"-37.80291641, 144.930412"
Pre May 16,X000351,COMPLETED,2010,Carlton,215,138-144 Elgin Street CARLTON VIC 3053,103144,,,,,3,0,0,0,0,0,22,0,22,0,0,0,0,0,0,0,432,0,0,0,0,0,0,0,0,0,0,144.9698102,-37.7971508,"-37.7971508, 144.9698102"
Pre May 16,X000512,COMPLETED,2007,North Melbourne,362,591-593 Elizabeth Street MELBOURNE VIC 3000,103245,,,,,7,0,0,0,0,0,60,0,60,0,0,0,0,0,0,0,0,0,0,0,0,0,0,0,0,0,0,144.9580838,-37.80452349,"-37.80452349, 144.9580838"
Pre May 16,X000525,COMPLETED,2013,North Melbourne,370,130-140 Errol Street NORTH MELBOURNE VIC 3051,103494,,,,,5,29,0,17,12,0,0,0,0,0,0,0,0,0,0,0,0,0,0,0,0,0,0,0,34,14,0,144.9501887,-37.80183594,"-37.80183594, 144.9501887"
Pre May 16,X000092,COMPLETED,2003,Melbourne (CBD),38,96-102 Exhibition Street MELBOURNE VIC 3000,103628,,,,,10,0,0,0,0,0,0,0,0,0,0,87,87,0,0,0,0,0,0,0,0,0,0,0,0,0,0,144.9714494,-37.81330117,"-37.81330117, 144.9714494"
Pre May 16,X000533,COMPLETED,2005,North Melbourne,375,RMIT Village 5-17 Flemington Road NORTH MELBOURNE VIC 3051,103810,,,,,6,0,0,0,0,0,238,0,238,0,0,0,0,0,0,0,0,0,0,0,0,0,0,0,0,0,0,144.955841,-37.80142395,"-37.80142395, 144.955841"
Pre May 16,X000013,COMPLETED,2009,Melbourne (CBD),11,YHA Melbourne Central 562-564 Flinders Street MELBOURNE VIC 3000,103985,,,,,5,0,0,0,0,0,0,0,0,0,0,0,0,212,0,0,0,0,0,0,0,0,0,0,0,0,0,144.9556322,-37.82059587,"-37.82059587, 144.9556322"
Pre May 16,X000289,COMPLETED,2015,Melbourne (CBD),104,151-165 Franklin Street MELBOURNE VIC 3000,104084,,,,,45,782,20,357,369,36,0,0,0,0,0,0,0,0,0,494,1060,0,0,0,0,0,0,0,342,293,0,144.9595688,-37.8090435,"-37.8090435, 144.9595688"
Pre May 16,X000316,COMPLETED,2009,Melbourne (CBD),115,58-64 Franklin Street MELBOURNE VIC 3000,104101,,,,,11,0,0,0,0,0,0,0,0,0,0,154,154,0,0,0,0,0,0,0,0,0,0,0,0,0,0,144.9608156,-37.80741732,"-37.80741732, 144.9608156"
Pre May 16,X000280,COMPLETED,2009,West Melbourne (Residential),101,Cityside 50-64 Jeffcott Street WEST MELBOURNE VIC 3003,105111,,,,,15,175,0,0,0,0,0,0,0,0,0,0,0,0,0,71,0,0,0,0,0,0,0,0,0,0,0,144.951613,-37.81157691,"-37.81157691, 144.951613"
Pre May 16,X000254,COMPLETED,2014,Melbourne (CBD),94,312-318 La Trobe Street MELBOURNE VIC 3000,105483,,,,,24,0,0,0,0,0,379,0,379,0,0,0,0,0,0,0,0,0,0,0,0,0,0,0,0,0,0,144.9600702,-37.81028876,"-37.81028876, 144.9600702"
Pre May 16,X000387,COMPLETED,2009,Carlton,257,100-106 Leicester Street CARLTON VIC 3053,105524,,,,,10,0,0,0,0,0,0,0,0,0,0,0,0,0,0,6300,0,0,0,0,0,0,0,0,0,0,0,144.9608578,-37.80370838,"-37.80370838, 144.9608578"
Pre May 16,X000226,COMPLETED,2005,Melbourne (CBD),85,Melbourne Central 183-265 La Trobe Street MELBOURNE VIC 3000,105746,,,,,6,0,0,0,0,0,0,0,0,0,0,0,0,0,0,0,3000,0,0,0,0,0,0,0,0,0,0,144.9627706,-37.81050923,"-37.81050923, 144.9627706"
Pre May 16,X000196,COMPLETED,2004,Melbourne (CBD),76,QV Village 278-300 Swanston Street MELBOURNE VIC 3000,105749,,,,,5,0,0,0,0,0,0,0,0,0,0,0,0,0,0,18450,0,0,0,0,0,0,0,0,0,0,0,144.965725,-37.81067869,"-37.81067869, 144.965725"
Pre May 16,X000236,COMPLETED,2010,Melbourne (CBD),87,EastEnd Apartments 2-14 Exploration Lane MELBOURNE VIC 3000,106056,,,,,30,177,0,0,0,0,0,0,0,0,0,0,0,0,0,0,230,0,0,0,0,0,0,0,0,0,0,144.9684463,-37.8091399,"-37.8091399, 144.9684463"
Pre May 16,X000457,COMPLETED,2009,North Melbourne,322,135-173 Macaulay Road NORTH MELBOURNE VIC 3051,106293,,,,,1,0,0,0,0,0,0,0,0,0,0,0,0,0,0,0,0,1203,0,0,0,0,0,0,0,0,0,144.9405564,-37.79747129,"-37.79747129, 144.9405564"
Pre May 16,X000593,COMPLETED,2003,West Melbourne (Residential),431,61-63 Stanley Street WEST MELBOURNE VIC 3003,109003,,,,,2,13,0,0,0,0,0,0,0,0,0,0,0,0,0,0,0,0,0,0,0,0,0,0,0,0,0,144.9495462,-37.80835759,"-37.80835759, 144.9495462"
Pre May 16,X000588,COMPLETED,2014,West Melbourne (Residential),427,162-170 Stanley Street WEST MELBOURNE VIC 3003,109042,,,,,4,14,0,0,14,0,0,0,0,0,0,0,0,0,0,0,0,0,0,0,0,0,0,0,0,0,0,144.9471711,-37.80904391,"-37.80904391, 144.9471711"
Pre May 16,X000331,COMPLETED,2007,Carlton,203,864-866 Swanston Street CARLTON VIC 3053,109349,,,,,2,1,0,0,0,0,16,0,16,0,0,0,0,0,0,0,0,0,0,0,0,0,0,0,0,0,0,144.9651384,-37.79606949,"-37.79606949, 144.9651384"
Pre May 16,X000627,COMPLETED,2009,Kensington,503,50-60 Lloyd Street KENSINGTON VIC 3031,109449,,,,,2,0,0,0,0,0,0,0,0,0,0,0,0,0,0,1000,0,2989,0,0,0,0,0,0,0,0,0,144.9299594,-37.79958628,"-37.79958628, 144.9299594"
Pre May 16,X000630,COMPLETED,2004,Kensington,503,50-60 Lloyd Street KENSINGTON VIC 3031,109449,,,,,2,0,0,0,0,0,0,0,0,0,0,0,0,0,0,852,0,0,0,0,0,0,0,0,0,0,0,144.9299594,-37.79958628,"-37.79958628, 144.9299594"
Pre May 16,X000633,COMPLETED,2011,Kensington,503,50-60 Lloyd Street KENSINGTON VIC 3031,109449,,,,,2,0,0,0,0,0,0,0,0,0,0,0,0,0,0,370,0,2265,0,0,0,0,0,0,0,0,0,144.9299594,-37.79958628,"-37.79958628, 144.9299594"
Pre May 16,X000636,COMPLETED,2011,Kensington,503,50-60 Lloyd Street KENSINGTON VIC 3031,109449,,,,,2,0,0,0,0,0,0,0,0,0,0,0,0,0,0,60,0,470,0,0,0,0,0,0,0,0,0,144.9299594,-37.79958628,"-37.79958628, 144.9299594"
Pre May 16,X000354,COMPLETED,2014,Carlton,219,14-28 University Street CARLTON VIC 3053,109572,,,,,0,17,0,0,0,0,0,0,0,0,0,0,0,0,0,0,0,0,0,0,0,0,0,0,0,0,0,144.9693014,-37.79941827,"-37.79941827, 144.9693014"
Pre May 16,X000492,COMPLETED,2012,North Melbourne,355,448 Victoria Street NORTH MELBOURNE VIC 3051,109803,,,,,2,0,0,0,0,0,0,0,0,0,0,0,0,50,0,0,0,0,0,0,0,0,0,0,0,0,0,144.9513519,-37.80505506,"-37.80505506, 144.9513519"
Pre May 16,X000548,COMPLETED,2003,North Melbourne,378,1-9 Villiers Street NORTH MELBOURNE VIC 3051,109857,,,,,4,30,0,0,0,0,0,0,0,0,0,0,0,0,0,0,0,0,0,0,0,0,0,0,0,0,0,144.9520654,-37.79989626,"-37.79989626, 144.9520654"
Pre May 16,X000535,COMPLETED,2010,North Melbourne,376,16-28 Wreckyn Street NORTH MELBOURNE VIC 3051,110261,,,,,4,37,0,0,0,0,0,0,0,0,0,0,0,0,0,404,0,0,0,0,0,0,0,0,0,0,0,144.9542365,-37.80069722,"-37.80069722, 144.9542365"
Pre May 16,X000366,COMPLETED,2003,Carlton,240,143-151 Barry Street CARLTON VIC 3053,581299,,,,,2,0,0,0,0,0,0,0,0,0,0,0,0,0,0,659,0,0,0,0,0,0,0,0,0,0,0,144.9594299,-37.80052593,"-37.80052593, 144.9594299"
Pre May 16,X000314,COMPLETED,2007,Melbourne (CBD),115,475-497 Swanston Street MELBOURNE VIC 3000,587480,,,,,49,520,0,0,0,0,0,0,0,0,0,66,66,0,0,0,2344,0,0,0,0,909,0,0,0,0,0,144.9620895,-37.8072889,"-37.8072889, 144.9620895"
Pre May 16,X000868,COMPLETED,2010,Port Melbourne,790,19-25 Wharf Road PORT MELBOURNE VIC 3207,589467,,,,,2,0,0,0,0,0,0,0,0,0,0,0,0,0,0,1032,0,1661,0,0,0,0,0,0,0,0,0,144.9075923,-37.82794007,"-37.82794007, 144.9075923"
Pre May 16,X000380,COMPLETED,2006,Carlton,254,26-34 Little Cardigan Street CARLTON VIC 3053,592721,,,,,5,27,0,0,0,0,0,0,0,0,0,0,0,0,0,0,0,0,0,0,0,0,0,0,0,0,0,144.9655979,-37.80410151,"-37.80410151, 144.9655979"
Pre May 16,X001139,COMPLETED,2009,Docklands,1110,Harbour Town 420-454 Docklands Drive DOCKLANDS VIC 3008,593737,,,,,6,104,0,0,0,0,0,0,0,0,0,0,0,0,0,900,21000,0,0,0,0,0,0,0,0,0,0,144.9377585,-37.81317308,"-37.81317308, 144.9377585"
Pre May 16,X000876,COMPLETED,2008,Port Melbourne,790,310-314 Lorimer Street PORT MELBOURNE VIC 3207,593754,,,,,4,0,0,0,0,0,0,0,0,0,0,0,0,0,0,0,0,0,2105,0,0,0,0,0,0,0,0,144.9077846,-37.82456547,"-37.82456547, 144.9077846"
Pre May 16,X000661,COMPLETED,2005,Kensington,520,65 Kensington Road KENSINGTON VIC 3031,597178,,,,,3,11,0,0,0,0,0,0,0,0,0,0,0,0,0,0,0,0,0,0,0,0,0,0,0,0,0,144.9249546,-37.79601619,"-37.79601619, 144.9249546"
Pre May 16,X000888,COMPLETED,2011,Port Melbourne,790,80-88 Wirraway Drive PORT MELBOURNE VIC 3207,597227,,,,,2,0,0,0,0,0,0,0,0,0,0,0,0,0,0,176,0,0,1906,0,0,0,0,0,0,0,0,144.9098932,-37.8248163,"-37.8248163, 144.9098932"
Pre May 16,X000620,COMPLETED,2015,West Melbourne (Industrial),501,216-232 Kensington Road WEST MELBOURNE VIC 3003,598604,,,,,1,0,0,0,0,0,0,0,0,0,0,0,0,0,0,295,0,0,140,0,0,0,0,0,21,0,0,144.9161047,-37.80038967,"-37.80038967, 144.9161047"
Pre May 16,X000680,COMPLETED,2009,Kensington,571,Showgrounds Village 320-386 Epsom Road FLEMINGTON VIC 3031,602256,,,,,2,0,0,0,0,0,0,0,0,0,0,0,0,0,0,613,9453,0,0,0,0,0,0,0,0,0,0,144.9150996,-37.78225271,"-37.78225271, 144.9150996"
Pre May 16,X000046,COMPLETED,2011,Melbourne (CBD),23,384-386 Flinders Lane MELBOURNE VIC 3000,603904,,,,,7,1,0,0,0,0,0,0,0,0,0,0,0,0,0,700,0,0,0,0,0,0,0,0,0,5,0,144.9611718,-37.81789524,"-37.81789524, 144.9611718"
Pre May 16,X001073,COMPLETED,2009,Docklands,1108,The Merchant 834-846 Bourke Street DOCKLANDS VIC 3008,604118,,,,,8,133,0,0,0,0,0,0,0,0,0,0,0,0,0,0,602,0,0,0,0,0,0,0,0,0,0,144.9431188,-37.81977079,"-37.81977079, 144.9431188"
Pre May 16,X001062,COMPLETED,2006,Docklands,1108,Dock 5 41-55 Victoria Harbour Promenade DOCKLANDS VIC 3008,604119,,,,,31,144,0,0,0,0,0,0,0,0,0,0,0,0,0,51,50,0,0,0,0,0,0,0,0,0,0,144.9429234,-37.81935155,"-37.81935155, 144.9429234"
Pre May 16,X001040,COMPLETED,2012,Docklands,1105,Lantern 705-715 Collins Street DOCKLANDS VIC 3008,605909,,,,,2,0,0,0,0,0,0,0,0,0,0,0,0,0,0,10621,410,0,0,0,0,0,0,0,23,0,0,144.9511384,-37.82088296,"-37.82088296, 144.9511384"
Pre May 16,X001135,COMPLETED,2008,Docklands,1110,364-378 Docklands Drive DOCKLANDS VIC 3008,608355,,,,,7,0,0,0,0,0,0,0,0,0,0,0,0,0,0,7129,116,0,0,0,0,0,0,0,0,0,0,144.941859,-37.81286334,"-37.81286334, 144.941859"
Pre May 16,X000982,COMPLETED,2006,Parkville,928,11 Parkville Avenue PARKVILLE VIC 3052,608452,,,,,2,26,0,0,0,0,0,0,0,0,0,0,0,0,0,0,0,0,0,0,0,0,0,0,0,0,0,144.9410244,-37.78085036,"-37.78085036, 144.9410244"
Pre May 16,X000978,COMPLETED,2006,Parkville,928,6 Garrard Street PARKVILLE VIC 3052,608610,,,,,1,7,0,0,0,0,0,0,0,0,0,0,0,0,0,0,0,0,0,0,0,0,0,0,0,0,0,144.9420313,-37.77963341,"-37.77963341, 144.9420313"
Pre May 16,X001071,COMPLETED,2008,Docklands,1108,The Gauge Site 821-827 Bourke Street DOCKLANDS VIC 3008,609479,,,,,6,0,0,0,0,0,0,0,0,0,0,0,0,0,0,8982,1322,0,0,0,0,0,0,0,0,0,0,144.9441598,-37.82024314,"-37.82024314, 144.9441598"
Pre May 16,X001064,COMPLETED,2008,Docklands,1108,The Mosaic 791-803 Bourke Street DOCKLANDS VIC 3008,611364,,,,,9,70,0,0,0,0,0,0,0,0,0,0,0,0,0,0,165,0,0,0,0,0,0,0,0,0,0,144.9456211,-37.81974063,"-37.81974063, 144.9456211"
Pre May 16,X001068,COMPLETED,2012,Docklands,1108,Serrata Apartments 813-817 Bourke Street DOCKLANDS VIC 3008,611366,,,,,16,144,0,61,83,0,0,0,0,0,0,0,0,0,0,0,0,0,0,0,0,0,0,0,95,0,0,144.9446907,-37.81994818,"-37.81994818, 144.9446907"
Pre May 16,X000820,COMPLETED,2007,Port Melbourne,774,161-189 Turner Street PORT MELBOURNE VIC 3207,611377,,,,,2,0,0,0,0,0,0,0,0,0,0,0,0,0,0,500,0,0,1700,0,0,0,0,0,0,0,0,144.9320441,-37.82353192,"-37.82353192, 144.9320441"
Pre May 16,X000819,COMPLETED,2015,Docklands,773,"92-102 Lorimer Street, DOCKLANDS, 3008",665148,611696,,,,39,205,0,52,100,53,0,0,0,0,0,0,0,0,0,0,478,0,0,0,0,0,0,0,331,65,0,144.9431953,-37.82430056,"-37.82430056, 144.9431953"
Pre May 16,X000977,COMPLETED,2009,Parkville,928,52-62 Cade Way PARKVILLE VIC 3052,612698,,,,,5,52,0,0,0,0,0,0,0,110,0,0,0,0,0,0,0,0,0,0,0,0,0,0,0,0,0,144.939127,-37.77619477,"-37.77619477, 144.939127"
Pre May 16,X000971,COMPLETED,2008,Parkville,928,23-51 Cade Way PARKVILLE VIC 3052,612726,,,,,3,31,0,0,0,0,0,0,0,0,0,0,0,0,0,0,0,0,0,0,0,0,0,0,0,0,0,144.9392749,-37.77745026,"-37.77745026, 144.9392749"
Pre May 16,X000903,COMPLETED,2009,Southbank,802,28 Freshwater Place SOUTHBANK VIC 3006,613006,,,,,26,0,0,0,0,0,0,0,0,0,0,0,0,0,0,33953,900,0,0,0,0,0,0,0,0,0,0,144.9622962,-37.82267317,"-37.82267317, 144.9622962"
Pre May 16,X001066,COMPLETED,2010,Docklands,1108,790-814 Collins Street DOCKLANDS VIC 3008,613252,,,,,11,0,0,0,0,0,0,0,0,0,0,0,0,0,0,28676,853,0,0,0,0,0,0,0,0,0,0,144.9458326,-37.82104416,"-37.82104416, 144.9458326"
Pre May 16,X000886,COMPLETED,2009,Port Melbourne,790,67-77 Wharf Road PORT MELBOURNE VIC 3207,613950,,,,,2,0,0,0,0,0,0,0,0,0,0,0,0,0,0,950,0,0,0,0,0,0,0,0,0,0,0,144.909504,-37.82675609,"-37.82675609, 144.909504"
Pre May 16,X001158,COMPLETED,2009,Kensington,2530,7-9 Rankins Road KENSINGTON VIC 3031,616109,,,,,4,15,0,0,0,0,0,0,0,0,0,0,0,0,0,0,0,0,0,0,0,0,0,0,0,0,0,144.9322926,-37.78880349,"-37.78880349, 144.9322926"
Pre May 16,X000959,COMPLETED,2008,Parkville,920,Royal Womens Hospital 18-22 Flemington Road PARKVILLE VIC 3050,618951,,,,,8,0,0,0,0,0,0,0,0,0,0,0,0,0,0,0,626,0,0,0,0,0,0,0,0,0,0,144.9549953,-37.79885018,"-37.79885018, 144.9549953"
Pre May 16,X000656,COMPLETED,2009,Kensington,520,50-58 Altona Street KENSINGTON VIC 3031,619479,,,,,5,51,0,0,0,0,0,0,0,0,0,0,0,0,0,0,0,0,0,0,0,0,0,0,0,0,0,144.9266259,-37.79774903,"-37.79774903, 144.9266259"
Pre May 16,X001147,COMPLETED,2008,North Melbourne,2381,177-187 Boundary Road NORTH MELBOURNE VIC 3051,619509,,,,,6,0,0,0,0,0,0,0,0,0,0,0,0,0,0,2414,0,0,0,0,0,0,0,0,0,0,0,144.9395663,-37.78864444,"-37.78864444, 144.9395663"
Pre May 16,X000282,COMPLETED,2015,Melbourne (CBD),103,218-236 A'Beckett Street MELBOURNE VIC 3000,621414,,,,,25,320,0,122,172,26,0,0,0,0,0,0,0,0,0,0,289,0,0,0,0,0,0,0,0,0,0,144.9565992,-37.81017257,"-37.81017257, 144.9565992"
Pre May 16,X000648,COMPLETED,2009,Kensington,520,34-48 Altona Street KENSINGTON VIC 3031,621972,,,,,4,45,0,0,0,0,0,0,0,0,0,0,0,0,0,0,0,0,0,0,0,0,0,0,0,0,0,144.9268663,-37.7980964,"-37.7980964, 144.9268663"
Pre May 16,X000701,COMPLETED,2009,East Melbourne,655,235 Wellington Parade South EAST MELBOURNE VIC 3002,623202,,,,,3,15,0,0,0,0,0,0,0,0,0,0,0,0,0,0,0,0,0,0,0,0,0,0,0,0,0,144.9765033,-37.81632518,"-37.81632518, 144.9765033"
Pre May 16,X000869,COMPLETED,2009,Port Melbourne,790,20-36 Sabre Drive PORT MELBOURNE VIC 3207,624112,,,,,2,0,0,0,0,0,0,0,0,0,0,0,0,0,0,1517,0,0,0,0,0,0,0,0,0,0,0,144.9058847,-37.82747829,"-37.82747829, 144.9058847"
Pre May 16,X000663,COMPLETED,2010,Kensington,520,70 Derby Street KENSINGTON VIC 3031,624169,,,,,4,16,0,0,0,0,0,0,0,0,0,0,0,0,0,0,0,0,0,0,0,0,0,0,0,0,0,144.9278352,-37.79752603,"-37.79752603, 144.9278352"
Pre May 16,X000975,COMPLETED,2009,Parkville,928,35 Parkville Avenue PARKVILLE VIC 3052,626946,,,,,2,8,0,0,0,0,0,0,0,0,0,0,0,0,0,0,0,0,0,0,0,0,0,0,0,0,0,144.9412506,-37.77955286,"-37.77955286, 144.9412506"
Pre May 16,X000343,COMPLETED,2011,Carlton,212,145-161 Princes Street CARLTON VIC 3053,627566,,,,,8,90,0,0,0,0,0,0,0,0,0,0,0,0,0,0,0,0,0,0,0,0,0,0,0,0,0,144.9705254,-37.79295182,"-37.79295182, 144.9705254"
Pre May 16,X001105,COMPLETED,2011,Docklands,1109,Harbour One Apartments 2-10 Marmion Place DOCKLANDS VIC 3008,627658,,,,,23,319,0,0,0,0,0,0,0,0,0,0,0,0,0,1313,320,0,0,0,0,0,0,0,348,0,0,144.9421786,-37.8134273,"-37.8134273, 144.9421786"
Pre May 16,X000779,COMPLETED,2010,Docklands,773,2 Stokehold Mews DOCKLANDS VIC 3008,627712,,,,,4,33,0,0,0,0,0,0,0,0,0,0,0,0,0,0,0,0,0,0,0,0,0,0,0,0,0,144.9373575,-37.82287721,"-37.82287721, 144.9373575"
Pre May 16,X001049,COMPLETED,2012,Docklands,1105,733-747 Collins Street DOCKLANDS VIC 3008,628714,,,,,16,0,0,0,0,0,0,0,0,0,0,0,0,0,0,38375,1468,0,0,0,0,0,0,0,92,0,0,144.9494199,-37.82095115,"-37.82095115, 144.9494199"
Pre May 16,X001020,COMPLETED,2012,Docklands,1102,990 La Trobe Street DOCKLANDS VIC 3008,631646,,,,,9,0,0,0,0,0,0,0,0,0,0,0,0,0,0,12498,93,0,0,0,0,201,0,0,64,0,0,144.946739,-37.81382669,"-37.81382669, 144.946739"
Pre May 16,X000664,COMPLETED,2012,Kensington,520,63-77 Henry Street KENSINGTON VIC 3031,631887,,,,,5,75,0,26,49,0,0,0,0,0,0,0,0,0,0,0,0,0,0,0,0,0,0,0,0,0,0,144.9262767,-37.7962423,"-37.7962423, 144.9262767"
Pre May 16,X000327,COMPLETED,2012,Carlton,201,487-495 Cardigan Street CARLTON VIC 3053,634042,,,,,6,49,0,0,0,0,0,0,0,0,0,0,0,0,0,0,0,0,0,0,0,0,0,0,0,0,0,144.9662339,-37.79362198,"-37.79362198, 144.9662339"
Pre May 16,X001097,COMPLETED,2012,Docklands,1108,83 Geographe Street DOCKLANDS VIC 3008,678343,,,,,3,4,0,0,0,0,0,0,0,0,0,0,0,0,0,0,0,0,0,0,0,0,0,0,0,0,0,144.9452428,-37.8200147,"-37.8200147, 144.9452428"
Pre May 16,X000813,COMPLETED,2012,Docklands,773,68 South Wharf Drive DOCKLANDS VIC 3008,637396,,,,,3,0,0,0,0,0,0,0,0,0,0,0,0,0,0,0,0,0,0,0,0,0,0,0,0,0,0,144.9369867,-37.82212836,"-37.82212836, 144.9369867"
Pre May 16,X000818,COMPLETED,2012,Docklands,773,9 Stokehold Mews DOCKLANDS VIC 3008,637398,,,,,3,0,0,0,0,0,0,0,0,0,0,0,0,0,0,0,0,0,0,0,0,0,0,0,0,0,0,144.9371742,-37.8225542,"-37.8225542, 144.9371742"
Pre May 16,X000806,COMPLETED,2012,Docklands,773,59 South Wharf Drive DOCKLANDS VIC 3008,637400,,,,,3,0,0,0,0,0,0,0,0,0,0,0,0,0,0,0,0,0,0,0,0,0,0,0,0,0,0,144.9370216,-37.82251956,"-37.82251956, 144.9370216"
Pre May 16,X000811,COMPLETED,2012,Docklands,773,65 South Wharf Drive DOCKLANDS VIC 3008,637403,,,,,3,0,0,0,0,0,0,0,0,0,0,0,0,0,0,0,0,0,0,0,0,0,0,0,0,0,0,144.9367956,-37.82246825,"-37.82246825, 144.9367956"
Pre May 16,X000794,COMPLETED,2012,Docklands,773,24 South Wharf Drive DOCKLANDS VIC 3008,637415,,,,,3,0,0,0,0,0,0,0,0,0,0,0,0,0,0,0,0,0,0,0,0,0,0,0,0,0,0,144.9398968,-37.82278891,"-37.82278891, 144.9398968"
Pre May 16,X000796,COMPLETED,2012,Docklands,773,26 South Wharf Drive DOCKLANDS VIC 3008,637416,,,,,3,0,0,0,0,0,0,0,0,0,0,0,0,0,0,0,0,0,0,0,0,0,0,0,0,0,0,144.9397931,-37.82276536,"-37.82276536, 144.9397931"
Pre May 16,X000798,COMPLETED,2012,Docklands,773,28 South Wharf Drive DOCKLANDS VIC 3008,637417,,,,,3,0,0,0,0,0,0,0,0,0,0,0,0,0,0,0,0,0,0,0,0,0,0,0,0,0,0,144.9396893,-37.82274182,"-37.82274182, 144.9396893"
Pre May 16,X000795,COMPLETED,2012,Docklands,773,25 South Wharf Drive DOCKLANDS VIC 3008,637421,,,,,3,0,0,0,0,0,0,0,0,0,0,0,0,0,0,0,0,0,0,0,0,0,0,0,0,0,0,144.9397216,-37.82310759,"-37.82310759, 144.9397216"
Pre May 16,X000983,COMPLETED,2013,Parkville,928,86-90 Cade Way PARKVILLE VIC 3052,637689,,,,,2,51,0,14,37,0,0,0,0,0,0,0,0,0,0,0,0,0,0,0,0,0,0,0,0,0,0,144.9384561,-37.7782127,"-37.7782127, 144.9384561"
Pre May 16,X000916,COMPLETED,2010,Southbank,806,27-59 Whiteman Street SOUTHBANK VIC 3006,640947,,,,,27,0,0,0,0,0,0,0,0,0,658,0,658,0,0,0,5000,0,0,0,0,0,0,0,0,0,0,144.958312,-37.82606624,"-37.82606624, 144.958312"
Pre May 16,X001002,COMPLETED,2015,Docklands,1101,263-283 Spencer Street DOCKLANDS VIC 3008,644320,,,,,15,0,0,0,0,0,0,0,0,0,0,0,0,0,0,0,0,0,0,0,0,0,0,0,0,0,0,144.9511859,-37.81433178,"-37.81433178, 144.9511859"
Post May 16,X001075,COMPLETED,2016,Docklands,1108,Victoria Harbour Precinct 938 Collins Street DOCKLANDS VIC 3008,106983,,,,,2,0,0,0,0,0,0,0,0,0,0,0,0,0,0,149,0,0,850,0,0,0,0,337,0,0,TP-2014-43/A,144.9367403,-37.81977616,"-37.81977616, 144.9367403"
Post May 16,X000082,COMPLETED,2016,Melbourne (CBD),35,258-274 Collins Street MELBOURNE VIC 3000,102143,,,,,4,0,0,0,0,0,0,0,0,0,0,0,0,0,0,0,8745,0,0,0,0,0,0,0,0,0,TP-2012-829,144.9648904,-37.81537999,"-37.81537999, 144.9648904"
Post May 16,X001000,COMPLETED,2016,West Melbourne (Industrial),1015,5-9 Lloyd Street WEST MELBOURNE VIC 3003,105660,,,,,2,0,0,0,0,0,0,0,0,0,0,0,0,0,0,0,0,2486,0,0,0,0,0,0,30,9,TP-2011-945/B,144.9323937,-37.80162307,"-37.80162307, 144.9323937"
Post May 16,X000714,COMPLETED,2016,Melbourne (Remainder),710,405 St Kilda Road MELBOURNE VIC 3004,108623,,,,,6,36,0,24,12,0,0,0,0,0,0,0,0,0,0,0,0,0,0,0,0,0,0,0,26,14,TP-2011-510,144.9761191,-37.83601714,"-37.83601714, 144.9761191"
Post May 16,X000493,COMPLETED,2016,North Melbourne,356,392-398 Victoria Street NORTH MELBOURNE VIC 3051,109816,,,,,4,17,0,2,9,6,0,0,0,0,0,0,0,0,0,0,0,0,0,0,0,0,0,0,0,0,TP-2007-658/A,144.952968,-37.80523133,"-37.80523133, 144.952968"
Post May 16,X000041,COMPLETED,2015,Melbourne (CBD),21,559-587 Collins Street MELBOURNE VIC 3000,579252,,,,,26,0,0,0,0,0,0,0,0,0,0,0,0,0,0,53000,2000,0,0,0,0,0,0,0,150,0,TPM-2009-10,144.9557247,-37.81902009,"-37.81902009, 144.9557247"
Post May 16,X000936,COMPLETED,2016,Southbank,812,57-61 City Road SOUTHBANK VIC 3006,110354,,,,,37,246,0,123,123,0,0,0,0,0,0,0,0,0,0,156,247,0,0,0,0,0,0,0,144,200,TP-2010-608/A,144.9659933,-37.82215785,"-37.82215785, 144.9659933"
Post May 16,X001523,COMPLETED,2016,Parkville,928,65-79 Galada Avenue PARKVILLE VIC 3052,612700,,,,,5,68,0,19,44,5,0,0,0,0,0,0,0,0,0,0,0,0,0,0,0,0,0,0,0,0,TPM-2012-39,144.9391073,-37.77956819,"-37.77956819, 144.9391073"
Post May 16,X001516,COMPLETED,2016,North Melbourne,366,366-392 Queensberry Street NORTH MELBOURNE VIC 3051,102201,,,,,4,35,0,18,17,0,0,0,0,0,0,0,0,0,0,0,0,0,0,0,0,0,0,0,0,0,TP-2012-315/A,144.9550184,-37.80326652,"-37.80326652, 144.9550184"
Post May 16,X000182,COMPLETED,2016,Melbourne (CBD),71,Melbourne One Apartments 612-620 Lonsdale Street MELBOURNE VIC 3000,105719,,,,,46,468,33,105,296,34,0,0,0,0,0,0,0,0,0,0,740,0,0,0,0,0,0,0,395,481,TPM-2009-41,144.9539168,-37.81423941,"-37.81423941, 144.9539168"
Post May 16,X000181,COMPLETED,2016,Melbourne (CBD),71,Australis Apartments 593-611 Little Lonsdale Street MELBOURNE VIC 3000,106028,,,,,46,520,0,293,227,0,0,0,0,0,0,0,0,0,0,0,456,0,0,0,0,0,0,0,324,0,TPM-2009-40/A,144.9538308,-37.81380962,"-37.81380962, 144.9538308"
Post May 16,X001256,COMPLETED,2017,West Melbourne (Residential),101,383-405 King Street WEST MELBOURNE VIC 3003,105326,,,,,10,0,0,0,0,0,0,0,0,0,0,0,0,0,0,0,115,0,0,12500,0,0,0,0,0,0,TP-2015-515/A,144.9529245,-37.8111076,"-37.8111076, 144.9529245"
Post May 16,X000328,COMPLETED,2017,Carlton,202,932-944 Swanston Street CARLTON VIC 3053,109331,,,,,3,0,0,0,0,0,0,28,28,0,0,0,0,0,0,0,0,0,0,0,0,0,0,0,0,28,TP-2013-1059,144.9652988,-37.79457313,"-37.79457313, 144.9652988"
Post May 16,X000605,COMPLETED,2017,West Melbourne (Residential),440,130-154 Dudley Street WEST MELBOURNE VIC 3003,102958,679271,679272,679273,,9,81,5,40,36,0,0,0,0,0,0,0,0,0,0,0,0,0,0,0,0,0,0,0,0,0,TPM-2011-40/A,144.9506136,-37.80952166,"-37.80952166, 144.9506136"
Post May 16,X001519,COMPLETED,2017,West Melbourne (Residential),440,130-154 Dudley Street WEST MELBOURNE VIC 3003,102958,679271,679272,679273,,9,80,5,39,36,0,0,0,0,0,0,0,0,0,0,0,0,0,0,0,0,0,0,0,0,0,TPM-2011-40/A,144.9506136,-37.80952166,"-37.80952166, 144.9506136"
Post May 16,X000215,COMPLETED,2017,Melbourne (CBD),84,Eporo Tower 279-289 La Trobe Street MELBOURNE VIC 3000,105446,105447,105448,,,42,307,0,72,235,0,0,0,0,0,0,0,0,0,0,0,292,0,0,0,0,0,0,2918,118,120,TPM-2011-9,144.9608641,-37.81073633,"-37.81073633, 144.9608641"
Post May 16,X001115,COMPLETED,2017,Docklands,1109,411-423 Docklands Drive DOCKLANDS VIC 3008,593733,,,,,19,160,0,72,75,13,0,0,0,0,0,0,0,0,0,0,0,0,0,0,0,0,0,0,176,281,TPD-2012-43,144.939715,-37.81472008,"-37.81472008, 144.939715"
Post May 16,X001116,COMPLETED,2017,Docklands,1109,411-423 Docklands Drive DOCKLANDS VIC 3008,593733,,,,,23,244,0,135,106,3,0,0,0,0,0,0,0,0,0,0,519,0,0,0,0,0,0,0,220,157,TPD-2012-43,144.939715,-37.81472008,"-37.81472008, 144.939715"
Post May 16,X000787,COMPLETED,2017,Docklands,773,73-91 South Wharf Drive DOCKLANDS VIC 3008,627016,,,,,30,229,5,71,118,35,0,0,0,0,0,0,0,0,0,0,229,0,0,0,0,0,0,0,302,84,TPD-2014-7,144.9359189,-37.82238476,"-37.82238476, 144.9359189"
Post May 16,X000717,COMPLETED,2017,Melbourne (Remainder),724,555-563 St Kilda Road MELBOURNE VIC 3004,632373,,,,,23,326,0,52,227,47,0,0,0,0,0,0,0,0,0,0,0,0,0,0,0,0,0,0,365,0,0,144.9805697,-37.84730297,"-37.84730297, 144.9805697"
Post May 16,X000740,COMPLETED,2017,Southbank,736,42-48 Balston Street SOUTHBANK VIC 3006,559332,,,,,32,179,0,0,0,0,0,0,0,0,0,0,0,0,0,0,0,0,0,0,0,0,0,0,228,162,TPM-2012-3,144.9624854,-37.82673378,"-37.82673378, 144.9624854"
Post May 16,X001387,COMPLETED,2017,Melbourne (CBD),17,114 Flinders Street MELBOURNE VIC 3000,104025,,,,,6,0,0,0,0,0,0,0,0,0,0,0,0,0,0,0,909,0,0,0,0,0,0,0,1275,438,TPM-2009-34/B,144.970758,-37.81595693,"-37.81595693, 144.970758"
Post May 16,X001096,COMPLETED,2017,Docklands,1108,869-883 Collins Street DOCKLANDS VIC 3008,667600,,,,,30,309,0,110,184,15,0,0,0,0,0,0,0,0,0,0,617,0,0,0,0,0,0,0,364,149,TPM-2014-50,144.9429799,-37.82148719,"-37.82148719, 144.9429799"
Post May 16,X000450,COMPLETED,2017,North Melbourne,317,1 Shiel Street NORTH MELBOURNE VIC 3051,108695,,,,,7,34,0,4,30,0,0,0,0,0,0,0,0,0,0,0,0,0,0,0,0,0,0,0,45,60,TP-2014-115/A,144.9438086,-37.79832303,"-37.79832303, 144.9438086"
Post May 16,X000743,COMPLETED,2017,Southbank,738,120-130 Southbank Boulevard SOUTHBANK VIC 3006,110342,,,,,6,0,0,0,0,0,0,0,0,0,0,0,0,0,0,30000,0,0,0,0,0,0,0,0,0,0,ID-2013-2,144.9664971,-37.82399161,"-37.82399161, 144.9664971"
Post May 16,X001127,COMPLETED,2017,Docklands,1109,6-22 Pearl River Road DOCKLANDS VIC 3008,593732,,,,,43,463,0,278,154,31,0,0,0,0,284,0,284,0,0,0,0,0,0,0,0,0,0,0,308,149,TPD-2012-29/A,144.938287,-37.81546212,"-37.81546212, 144.938287"
Post May 16,X001581,COMPLETED,2017,Melbourne (CBD),27,89-105 Collins Street MELBOURNE VIC 3000,102067,,,,,0,0,0,0,0,0,0,0,0,0,0,0,0,0,166,0,0,0,0,0,0,0,0,0,0,0,TP-2015-803/A,144.9708165,-37.81487457,"-37.81487457, 144.9708165"
Post May 16,X001192,COMPLETED,2017,Melbourne (CBD),85,Melbourne Central 183-265 La Trobe Street MELBOURNE VIC 3000,105746,,,,,1,0,0,0,0,0,0,0,0,0,0,0,0,0,90,0,0,0,0,0,0,0,0,0,0,0,TP-2014-1135,144.9627706,-37.81050923,"-37.81050923, 144.9627706"
Post May 16,X000570,COMPLETED,2017,West Melbourne (Residential),413,82-84 Ireland Street WEST MELBOURNE VIC 3003,105093,,,,,5,14,0,4,4,6,0,0,0,0,0,0,0,0,0,0,0,0,0,0,0,0,0,0,6,14,TP-2013-260,144.9437363,-37.80662529,"-37.80662529, 144.9437363"
Post May 16,X000346,COMPLETED,2017,Carlton,212,494-516 Drummond Street CARLTON VIC 3053,627568,,,,,9,91,0,0,70,21,0,0,0,0,0,0,0,0,0,0,0,0,0,0,0,0,0,0,98,4,TPM-2014-39,144.9700228,-37.79357998,"-37.79357998, 144.9700228"
Post May 16,X001277,COMPLETED,2017,North Melbourne,323,46-54 Henderson Street NORTH MELBOURNE VIC 3051,104786,,,,,3,0,0,0,0,0,0,0,0,0,0,0,0,0,0,0,0,0,0,0,0,0,0,0,22,0,TP-2015-301,144.9395638,-37.79730229,"-37.79730229, 144.9395638"
Post May 16,X000528,COMPLETED,2017,North Melbourne,370,33-35 Arden Street NORTH MELBOURNE VIC 3051,579248,,,,,4,45,4,29,12,0,0,0,0,0,0,0,0,0,0,0,0,0,0,0,0,0,0,0,41,0,TP-2014-193,144.9505202,-37.80135261,"-37.80135261, 144.9505202"
Post May 16,X000305,COMPLETED,2017,West Melbourne (Residential),111,57-77 Dudley Street WEST MELBOURNE VIC 3003,108947,,,,,39,438,0,154,266,18,0,0,0,0,0,0,0,0,0,2603,0,0,0,0,0,0,0,0,202,0,TPM-2010-13/A,144.9505875,-37.81025672,"-37.81025672, 144.9505875"
Post May 16,X001529,COMPLETED,2017,Port Melbourne,785,(32 South Wharf) 469-591 Lorimer Street PORT MELBOURNE VIC 3207,110506,,,,,2,0,0,0,0,0,0,0,0,0,0,0,0,0,0,0,0,166,0,0,0,0,0,0,24,0,TPM-2016-25,144.9136029,-37.82148005,"-37.82148005, 144.9136029"
Post May 16,X000149,COMPLETED,2017,Melbourne (CBD),61,20-40 Rose Lane MELBOURNE VIC 3000,105717,,,,,51,399,0,64,291,44,0,0,0,0,0,0,0,0,0,0,279,0,0,0,0,369,0,0,204,122,TPM-2014-6,144.9542482,-37.81498912,"-37.81498912, 144.9542482"
Post May 16,X000786,COMPLETED,2017,Docklands,773,86 South Wharf Drive DOCKLANDS VIC 3008,677826,,,,,4,18,0,0,0,18,0,0,0,0,0,0,0,0,0,0,0,0,0,0,0,0,0,0,43,0,TP-2015-565,144.9354531,-37.82186675,"-37.82186675, 144.9354531"
Post May 16,X000853,COMPLETED,2017,Port Melbourne,786,552-578 Lorimer Street PORT MELBOURNE VIC 3207,650393,,,,,2,0,0,0,0,0,0,0,0,0,0,0,0,0,0,775,0,0,3325,0,0,0,0,0,30,6,0,144.9153361,-37.82272568,"-37.82272568, 144.9153361"
Post May 16,X000078,COMPLETED,2017,Melbourne (CBD),34,360-374 Collins Street MELBOURNE VIC 3000,102133,,,,,13,0,0,0,0,0,0,0,0,0,0,0,0,0,0,0,0,0,0,0,0,0,0,0,0,0,TP-2014-986/A,144.962171,-37.81616885,"-37.81616885, 144.962171"
Post May 16,X001169,COMPLETED,2018,Southbank,748,33 Coventry Street SOUTHBANK VIC 3006,110455,,,,,21,72,0,53,19,0,0,0,0,0,0,0,0,0,0,0,0,0,0,0,0,0,0,0,31,0,TP-2014-1037,144.9696443,-37.82940306,"-37.82940306, 144.9696443"
Post May 16,X001306,COMPLETED,2015,Parkville,931,Royal Childrens Hospital 48-50 Flemington Road PARKVILLE VIC 3052,103908,,,,,0,0,0,0,0,0,0,0,0,0,0,0,0,0,0,0,190,0,0,0,0,0,0,0,0,0,TPM-2015-23,144.9495408,-37.79361764,"-37.79361764, 144.9495408"
Post May 16,X000452,COMPLETED,2018,North Melbourne,317,"108 Haines Street, North Melbourne, 3051",110646,110645,,,,13,143,0,60,80,3,0,0,0,0,0,0,0,0,0,0,0,0,0,0,0,0,0,0,138,124,TP-2014-955,144.9434743,-37.7982701,"-37.7982701, 144.9434743"
Post May 16,X001215,COMPLETED,2018,Southbank,733,312-320 City Road SOUTHBANK VIC 3006,110399,,,,,43,494,0,148,334,12,0,0,0,0,0,0,0,0,0,0,276,0,0,0,0,0,0,0,180,32,TPM-2010-31,144.9582484,-37.82712269,"-37.82712269, 144.9582484"
Post May 16,X001272,COMPLETED,2018,Carlton,252,103 Drummond Street CARLTON VIC 3053,102632,102631,,,,3,0,0,0,0,0,20,0,20,0,0,0,0,0,0,0,0,0,0,0,0,0,0,0,0,32,TP-2015-384,144.96735,-37.80423245,"-37.80423245, 144.96735"
Post May 16,X001240,COMPLETED,2018,Docklands,773,"100 South Wharf Drive, Docklands, 3008",694342,,,,,4,18,0,0,0,18,0,0,0,0,0,0,0,0,0,0,0,0,0,0,0,0,0,0,18,0,TP-2016-289,144.9345318,-37.82165383,"-37.82165383, 144.9345318"
Post May 16,X000018,COMPLETED,2013,Melbourne (CBD),14,31-39 Elizabeth Street MELBOURNE VIC 3000,103172,,,,,2,0,0,0,0,0,0,0,0,0,0,0,0,0,0,0,0,0,0,0,0,500,0,0,0,0,TP-2011-829/A,144.9643344,-37.81742176,"-37.81742176, 144.9643344"
Post May 16,X000391,COMPLETED,2015,Carlton,257,123-127 Bouverie Street CARLTON VIC 3053,101246,,,,,14,0,0,0,0,0,0,0,0,0,0,0,0,0,0,0,0,0,0,0,0,0,0,0,0,0,TP-2013-947/A,144.9614617,-37.80349578,"-37.80349578, 144.9614617"
Post May 16,X001340,COMPLETED,2018,Carlton,259,"221 Pelham Street, CARLTON, 3053",107545,,,,,14,0,0,0,0,0,243,352,352,0,0,0,0,0,0,0,0,0,0,0,0,0,0,0,0,120,TP-2016-46,144.9589841,-37.80225591,"-37.80225591, 144.9589841"
Post May 16,X0001612,COMPLETED,2018,Southbank,813,The Primrose Potter Australian Ballet Centre 2-6 Kavanagh Street SOUTHBANK VIC 3006,110411,,,,,2,0,0,0,0,0,0,0,0,0,0,0,0,0,0,0,0,0,0,3910,0,0,0,0,0,0,TP-2016-991,144.9673678,-37.82197176,"-37.82197176, 144.9673678"
Post May 16,X001035,COMPLETED,2018,Docklands,1105,2-12 Batmans Hill Drive DOCKLANDS VIC 3008,628713,,,,,27,0,0,0,0,0,0,0,0,0,0,0,0,0,0,34700,472,0,0,0,0,0,0,0,242,0,TPM-2014-37,144.950065,-37.82172968,"-37.82172968, 144.950065"
Post May 16,X001320,COMPLETED,2018,Melbourne (CBD),74,Carpark 399-401 Little Lonsdale Street MELBOURNE VIC 3000,106019,,,,,38,0,0,0,0,0,0,0,0,0,483,0,483,0,0,0,442,0,0,0,0,0,0,0,130,0,TPM-2009-23/C,144.9601358,-37.81204562,"-37.81204562, 144.9601358"
Post May 16,X001551,COMPLETED,2018,Carlton,263,16-32 Leicester Street CARLTON VIC 3053,105527,,,,,17,0,0,0,0,0,734,866,866,0,0,0,0,0,0,0,126,0,0,0,0,0,0,0,0,100,TP-2016-825,144.9605077,-37.80570167,"-37.80570167, 144.9605077"
Post May 16,X0005007,COMPLETED,2018,Parkville,921,"30 Flemington Road, Parkville, 3052",103909,,,,,4,0,0,0,0,0,0,0,0,0,0,0,0,0,0,0,0,0,0,3930,0,0,0,0,0,0,ID-2016-1,144.9538501,-37.79754455,"-37.79754455, 144.9538501"
Post May 16,X001113,COMPLETED,2019,Docklands,1109,387-395 Docklands Drive DOCKLANDS VIC 3008,601814,,,,,18,180,0,135,45,0,0,0,0,0,0,0,0,0,0,0,0,0,0,0,0,0,0,0,53,0,TPD-2012-41/A,144.9408371,-37.81401982,"-37.81401982, 144.9408371"
Post May 16,X001281,COMPLETED,2019,North Melbourne,333,614-616 Queensberry Street NORTH MELBOURNE VIC 3051,107972,107974,,,,3,7,0,0,0,7,0,0,0,0,0,0,0,0,0,0,0,0,0,0,0,0,0,0,0,0,TP-2015-862,144.9469518,-37.80250584,"-37.80250584, 144.9469518"
Post May 16,X0001643,COMPLETED,2019,Melbourne (CBD),15,River View House 274-282 Flinders Street MELBOURNE VIC 3000,103328,,,,,10,0,0,0,0,0,0,0,0,0,0,0,0,0,0,4595,0,0,0,0,0,0,0,0,0,0,TP-2010-276/D,144.9650858,-37.81765999,"-37.81765999, 144.9650858"
Post May 16,X0004203,COMPLETED,2019,Southbank,751,Victorian College Of The Arts 234 St Kilda Road SOUTHBANK VIC 3006,108654,,,,,3,0,0,0,0,0,0,0,0,0,0,0,0,0,0,0,0,0,0,2900,0,0,0,0,0,0,TP-2018-423,144.9693876,-37.82445562,"-37.82445562, 144.9693876"
Post May 16,X001341,COMPLETED,2019,Carlton,260,684-688 Elizabeth Street MELBOURNE VIC 3000,103264,,,,,19,120,0,35,76,9,0,0,0,0,0,0,0,0,0,0,186,0,0,0,0,0,0,0,36,134,TP-2015-1219,144.9583041,-37.80236558,"-37.80236558, 144.9583041"
Post May 16,X000262,COMPLETED,2019,Melbourne (CBD),95,224-252 La Trobe Street MELBOURNE VIC 3000,105485,,,,,84,1139,0,520,563,56,0,0,0,0,0,204,204,0,0,3408,3037,0,0,0,0,0,0,0,364,786,TPM-2014-10,144.962281,-37.80965321,"-37.80965321, 144.962281"
Post May 16,X001234,COMPLETED,2019,West Melbourne (Residential),440,109-133 Rosslyn Street WEST MELBOURNE VIC 3003,108411,,,,,8,191,0,115,76,0,0,0,0,0,0,0,0,0,0,0,0,0,0,0,0,0,0,0,163,95,TP-2015-391,144.9506402,-37.80905673,"-37.80905673, 144.9506402"
Post May 16,X001549,COMPLETED,2019,Melbourne (CBD),77,"109-111 Little Lonsdale Street, MELBOURNE 3000",106006,,,,,21,0,0,0,0,0,0,0,0,0,149,0,149,0,0,0,121,0,0,0,0,0,0,0,0,0,TP-2016-537,144.9686039,-37.80945966,"-37.80945966, 144.9686039"
Post May 16,X0005006,COMPLETED,2019,Port Melbourne,786,580-600 Lorimer Street PORT MELBOURNE VIC 3207,650394,,,,,2,0,0,0,0,0,0,0,0,0,0,0,0,0,0,3160,0,10343,0,0,0,0,0,0,191,0,TP-2015-319/B,144.9163806,-37.82254848,"-37.82254848, 144.9163806"
Post May 16,X0005213,COMPLETED,2019,North Melbourne,368,450-454 Queensberry Street NORTH MELBOURNE VIC 3051,108015,,,,,4,1,0,1,0,0,0,0,0,0,0,19,19,0,0,0,0,0,0,0,0,0,0,0,12,10,TP-2014-482/B,144.9523781,-37.80306546,"-37.80306546, 144.9523781"
Post May 16,X000414,COMPLETED,2019,Carlton,264,156-172 Victoria Street CARLTON VIC 3053,644814,,,,,77,1035,0,348,627,60,0,0,0,0,0,0,0,0,0,0,1821,0,0,0,0,926,0,0,232,470,TPM-2014-13,144.9619402,-37.80614542,"-37.80614542, 144.9619402"
Post May 16,X001180,COMPLETED,2019,Kensington,2538,64-68 Stubbs Street KENSINGTON VIC 3031,616152,,,,,2,0,0,0,0,0,0,0,0,0,0,0,0,0,100,0,0,0,0,0,0,0,0,0,8,0,TP-2014-1080/B,144.935278,-37.79113281,"-37.79113281, 144.935278"
Post May 16,X0005605,COMPLETED,2019,Carlton,265,"96-100 Victoria Street, Carlton, 3053",109848,,,,,2,0,0,0,0,0,0,0,0,0,0,0,0,0,0,0,803,0,0,0,0,0,0,0,0,0,TP-2018-994,144.9641763,-37.80649761,"-37.80649761, 144.9641763"
Post May 16,X0002805,COMPLETED,2019,North Melbourne,375,RMIT Village 5-17 Flemington Road NORTH MELBOURNE VIC 3051,103810,,,,,12,0,0,0,0,0,106,160,160,0,0,0,0,0,0,0,212,0,0,0,0,0,0,0,0,123,TP-2015-1204/A,144.955841,-37.80142395,"-37.80142395, 144.955841"
Post May 16,X0003201,COMPLETED,2019,Melbourne (CBD),35,104-110 Elizabeth Street MELBOURNE VIC 3000,103320,,,,,8,0,0,0,0,0,0,0,0,0,0,0,0,0,0,1617,274,0,0,0,0,0,0,0,0,13,TP-2017-955,144.9640203,-37.81544356,"-37.81544356, 144.9640203"
Post May 16,X001188,COMPLETED,2017,Parkville,271,Ormond College 29-55 College Crescent PARKVILLE VIC 3052,102052,,,,,3,1,0,0,1,0,20,20,20,0,0,0,0,0,0,0,0,0,0,445,0,0,0,0,0,0,TP-2014-1116,144.9605351,-37.7930669,"-37.7930669, 144.9605351"
Post May 16,X001360,COMPLETED,2020,West Melbourne (Residential),432,3-11 Howard Street WEST MELBOURNE VIC 3003,105010,,,,,5,17,0,0,9,8,0,0,0,0,0,0,0,0,0,0,186,0,0,0,0,0,0,0,39,11,TP-2015-1218,144.9529789,-37.80701505,"-37.80701505, 144.9529789"
Post May 16,X0004802,COMPLETED,2020,North Melbourne,354,39-43 Leveson Street NORTH MELBOURNE VIC 3051,105610,,,,,3,10,0,0,2,8,0,0,0,0,0,0,0,0,0,0,0,0,0,0,0,0,0,0,11,0,TP-2017-78/A,144.950513,-37.80392261,"-37.80392261, 144.950513"
Post May 16,X0001652,COMPLETED,2020,Carlton,257,123-127 Bouverie Street CARLTON VIC 3053,101246,101247,,,,14,0,0,0,0,0,0,596,596,0,0,0,0,0,0,0,0,0,0,0,0,0,0,0,0,0,TP-2017-188,144.9614617,-37.80349578,"-37.80349578, 144.9614617"
Post May 16,X001565,COMPLETED,2020,Melbourne (CBD),13,1-5 Queen Street MELBOURNE VIC 3000,108057,,,,,24,2,0,0,0,2,0,0,0,0,0,192,192,0,0,0,420,0,0,0,0,0,0,0,1,0,TP-2014-524/A,144.9620226,-37.81878499,"-37.81878499, 144.9620226"
Post May 16,X0001634,COMPLETED,2020,Docklands,1101,263-283 Spencer Street DOCKLANDS VIC 3008,644320,,,,,41,0,0,0,0,0,0,0,0,0,0,0,0,0,0,60079,0,0,0,0,0,0,0,0,600,169,TPMR-2017-4,144.9511859,-37.81433178,"-37.81433178, 144.9511859"
Post May 16,X001253,COMPLETED,2020,South Yarra,862,91-93 Millswyn Street SOUTH YARRA VIC 3141,106636,,,,,4,13,0,3,10,0,0,0,0,0,0,0,0,0,0,0,0,0,0,0,0,0,0,0,16,4,TP-2015-668,144.9800981,-37.83519381,"-37.83519381, 144.9800981"
Post May 16,X0004806,COMPLETED,2020,East Melbourne,614,Freemasons Hospital 162-198 Clarendon Street EAST MELBOURNE VIC 3002,102005,,,,,9,0,0,0,0,0,0,0,0,0,0,0,0,0,0,0,0,0,0,0,4200,0,0,0,340,10,TP-2015-1136/B,144.9841889,-37.81107986,"-37.81107986, 144.9841889"
Post May 16,X0005606,COMPLETED,2020,Southbank,748,25-29 Coventry Street SOUTHBANK VIC 3006,110452,,,,,21,260,0,154,85,21,0,0,0,0,0,0,0,0,0,0,202,0,0,0,0,0,0,0,254,95,TP-2012-170/C,144.9700371,-37.82937789,"-37.82937789, 144.9700371"
Post May 16,X001297,COMPLETED,2020,Docklands,1106,614-666 Flinders Street DOCKLANDS VIC 3008,559277,,,,,1,0,0,0,0,0,0,0,0,0,0,0,0,0,0,0,0,0,0,0,0,0,0,0,285,493,TPM-2015-20,144.9534171,-37.82111519,"-37.82111519, 144.9534171"
Post May 16,X001570,COMPLETED,2020,Melbourne (CBD),87,141-149 La Trobe Street MELBOURNE VIC 3000,105441,101023,,,,43,177,0,124,53,0,0,0,0,0,0,0,0,0,0,0,364,0,0,0,0,0,0,0,58,0,TP-2014-910/A,144.9674791,-37.8087754,"-37.8087754, 144.9674791"
Post May 16,X001537,COMPLETED,2020,North Melbourne,336,233-239 Dryburgh Street NORTH MELBOURNE VIC 3051,102825,,,,,5,39,0,5,34,0,0,0,0,0,0,0,0,0,0,0,0,0,0,0,0,0,0,0,47,10,TP-2016-819,144.9434578,-37.80086079,"-37.80086079, 144.9434578"
Post May 16,X001288,COMPLETED,2020,Southbank,736,93-119 Kavanagh Street SOUTHBANK VIC 3006,110408,,,,,1,0,0,0,0,0,0,0,0,0,0,0,0,0,0,0,8095,0,0,0,0,0,0,0,0,0,TPM-2015-18,144.9635897,-37.82570384,"-37.82570384, 144.9635897"
Post May 16,X0002802,COMPLETED,2020,Carlton,265,498-504 Swanston Street CARLTON VIC 3053,109380,,,,,17,0,0,0,0,0,539,710,710,0,0,0,0,0,0,0,262,0,0,0,0,0,0,0,0,80,TP-2017-828,144.9637188,-37.80521719,"-37.80521719, 144.9637188"
Post May 16,X0006407,COMPLETED,2020,West Melbourne (Residential),111,"28 Batman Street, West Melbourne, 3003",100861,,,,,0,0,0,0,0,0,0,0,0,0,0,0,0,0,0,0,0,0,0,0,0,0,0,0,0,0,TP-2019-281,144.9518647,-37.81026913,"-37.81026913, 144.9518647"
Post May 16,X0004204,COMPLETED,2020,Melbourne (CBD),16,172-192 Flinders Street MELBOURNE VIC 3000,104018,,,,,11,0,0,0,0,0,0,0,0,0,0,0,0,0,0,15971,620,0,0,0,0,0,0,0,895,183,TP-2011-88/B,144.9685651,-37.81660689,"-37.81660689, 144.9685651"
Post May 16,X0001664,COMPLETED,2020,Southbank,812,49-59 Southbank Boulevard SOUTHBANK VIC 3006,110337,,,,,11,0,0,0,0,0,0,0,0,0,220,0,220,0,0,0,0,0,0,0,0,0,0,0,0,0,ID-2016-5,144.9648113,-37.82262347,"-37.82262347, 144.9648113"
Post May 16,X001291,COMPLETED,2020,Southbank,736,93-119 Kavanagh Street SOUTHBANK VIC 3006,110408,706735,,,,72,881,0,530,351,0,0,0,0,0,0,0,0,0,0,1925,0,0,0,0,0,0,0,0,464,0,TPM-2015-18,144.9635897,-37.82570384,"-37.82570384, 144.9635897"
Post May 16,X001563,COMPLETED,2021,Melbourne (CBD),85,268-270 Lonsdale Street MELBOURNE VIC 3000,105748,,,,,5,0,0,0,0,0,0,0,0,0,0,0,0,0,0,0,449,0,0,0,0,0,0,0,0,0,TP-2016-669,144.9641452,-37.81148397,"-37.81148397, 144.9641452"
Post May 16,X0002615,COMPLETED,2021,Carlton,205,114-152 Grattan Street CARLTON VIC 3053,104469,,,,,11,0,0,0,0,0,0,0,0,0,0,0,0,0,0,0,0,0,0,40832,0,0,0,0,55,0,ID-2017-2,144.9648073,-37.79996957,"-37.79996957, 144.9648073"
Post May 16,X0002616,COMPLETED,2021,Carlton,205,114-152 Grattan Street CARLTON VIC 3053,104469,,,,,6,0,0,0,0,0,0,0,0,0,0,0,0,0,90,0,0,0,0,2486,0,0,0,0,0,0,ID-2017-2,144.9648073,-37.79996957,"-37.79996957, 144.9648073"
Post May 16,X0008412,COMPLETED,2021,West Melbourne (Residential),441,177-231 Rosslyn Street WEST MELBOURNE VIC 3003,102956,,,,,11,102,0,50,27,25,0,0,0,0,0,0,0,0,0,0,1677,0,0,0,214,0,0,0,0,0,TPM-2014-22/B,144.9486,-37.8102,"-37.8102, 144.9486"
Post May 16,X000223,COMPLETED,2021,Melbourne (CBD),84,The Celtic Club 316-322 Queen Street MELBOURNE VIC 3000,108090,,,,,48,227,0,33,170,24,0,0,0,0,0,0,0,0,0,0,1882,0,0,0,0,0,0,0,30,64,TPM-2011-24,144.959303,-37.81120176,"-37.81120176, 144.959303"
Post May 16,X0002605,COMPLETED,2021,Carlton,256,623-645 Swanston Street CARLTON VIC 3053,109326,109326,,,,14,0,0,0,0,0,0,656,656,0,0,0,0,0,0,0,250,0,0,430,0,0,0,0,20,172,TP-2017-761/A,144.9629756,-37.80356808,"-37.80356808, 144.9629756"
Post May 16,X000734,COMPLETED,2021,Southbank,734,245-261 City Road SOUTHBANK VIC 3006,110371,,,,,43,371,0,199,170,2,0,0,0,0,0,0,0,0,0,0,149,0,0,0,0,316,0,0,0,382,TPM-2009-57,144.9598181,-37.82674968,"-37.82674968, 144.9598181"
Post May 16,X001175,COMPLETED,2021,South Yarra,859,146W-150W Toorak Road SOUTH YARRA VIC 3141,109512,,,,,3,10,0,0,0,10,0,0,0,0,0,0,0,0,0,0,0,0,0,0,0,0,0,0,33,4,TP-2014-1061/C,144.9843618,-37.83764528,"-37.83764528, 144.9843618"
Post May 16,X0006805,COMPLETED,2021,Melbourne (CBD),51,"628 Bourke Street, Melbourne, 3000",101170,,,,,0,0,0,0,0,0,0,0,0,0,0,0,0,0,0,0,1140,0,0,0,0,0,0,0,28,90,TP-2019-444,144.9548046,-37.81595931,"-37.81595931, 144.9548046"
Post May 16,X0005602,COMPLETED,2021,North Melbourne,363,611-669 Elizabeth Street MELBOURNE VIC 3000,103251,,,,,9,0,0,0,0,0,0,0,0,0,0,0,0,0,0,766,4461,3009,0,8688,0,0,0,0,106,97,TPM-2018-21,144.9574997,-37.80324692,"-37.80324692, 144.9574997"
Post May 16,X0003211,COMPLETED,2021,Melbourne (CBD),114,"131-151 Therry Street, Melbourne, 3000",109493,109492,104094,,,10,48,0,46,2,0,0,0,0,0,0,0,0,0,120,0,1332,0,0,0,0,0,0,5332,0,132,TPMR-2018-2,144.9589999,-37.80771253,"-37.80771253, 144.9589999"
Post May 16,X0002000,COMPLETED,2022,Melbourne (CBD),31,"595 Little Collins Street, MELBOURNE, 3000",105943,105944,,,,33,0,0,0,0,0,0,0,0,0,299,0,299,0,0,4700,564,0,0,0,0,0,0,0,87,30,TP-2017-443,144.9552294,-37.81793442,"-37.81793442, 144.9552294"
Post May 16,X0004001,COMPLETED,2022,Melbourne (CBD),93,183-189 A'Beckett Street MELBOURNE VIC 3000,100157,,,,,48,0,0,0,0,0,0,901,901,0,0,0,0,0,0,0,130,0,0,0,0,0,0,0,0,226,TPMR-2015-29/A,144.9580583,-37.8104074,"-37.8104074, 144.9580583"
Post May 16,X0007412,COMPLETED,2022,Kensington,512,"393 Macaulay Road, Kensington, 3031",106306,106305,,,,8,73,4,1,55,13,0,0,0,0,0,0,0,0,0,0,335,0,0,0,0,0,0,0,45,154,TP-2018-360/A,144.9338078,-37.79511714,"-37.79511714, 144.9338078"
Post May 16,X0008601,COMPLETED,2021,Kensington,505,"350 Arden Street, Kensington, 3031",100507,,,,,2,0,0,0,0,0,0,0,0,0,0,0,0,0,0,0,1056,0,0,0,0,0,0,0,0,28,TP-2020-151,144.9344,-37.799,"-37.799, 144.9344"
Post May 16,X0008804,COMPLETED,2022,Melbourne (CBD),77,150-162 Lonsdale Street MELBOURNE VIC 3000,110709,,,,,6,0,0,0,0,0,0,0,0,0,0,0,0,0,0,1280,0,0,0,0,0,0,0,0,0,0,TPMR-2020-19,144.9676,-37.8101,"-37.8101, 144.9676"
Post May 16,X000828,COMPLETED,2009,Port Melbourne,775,Lorimer Place 874-886 Lorimer Street PORT MELBOURNE VIC 3207,600456,,,,,2,0,0,0,0,0,0,0,0,0,0,0,0,0,0,2445,0,5569,0,0,0,0,0,0,0,0,TP-2006-523,144.9361631,-37.82373118,"-37.82373118, 144.9361631"
Post May 16,X0010202,COMPLETED,2022,West Melbourne (Residential),426,"512-544 Spencer Street, West Melbourne, 3003",108936,,,,,8,53,0,18,29,6,0,0,0,0,0,0,0,0,0,0,432,0,0,0,0,0,0,0,69,53,TPM-2017-5/A,144.9488,-37.8079,"-37.8079, 144.9488"
Post May 16,X0004602,COMPLETED,2022,Melbourne (CBD),77,150-162 Lonsdale Street MELBOURNE VIC 3000,110709,,,,,21,0,0,0,0,0,0,0,0,0,0,0,0,0,0,22450,280,0,0,0,0,0,0,0,138,200,TPMR-2017-10/A,144.9675734,-37.81012247,"-37.81012247, 144.9675734"
Post May 16,X001323,COMPLETED,2022,Southbank,812,71-75 City Road SOUTHBANK VIC 3006,110357,110358,110359,110360,,49,592,0,252,208,132,0,0,0,0,0,0,0,0,0,422,543,0,0,0,0,0,0,0,266,391,TPM-2015-37,144.9656151,-37.82232878,"-37.82232878, 144.9656151"
Post May 16,X0013400,COMPLETED,2022,East Melbourne,656,"70-74 Jolimont Street, East Melbourne, 3002",105137,,,,,5,0,0,0,0,0,0,0,0,0,0,0,0,0,0,2973,0,0,0,0,0,0,0,0,32,12,TP-2022-232,144.9803627,-37.81820617,"-37.81820617, 144.9803627"
Post May 16,X0009414,COMPLETED,2022,North Melbourne,303,"St Michaels Primary School 8-14 Brougham Street, North Melbourne, 3051",101326,,,,,3,0,0,0,0,0,0,0,0,0,0,0,0,0,0,0,0,0,0,1557,0,0,0,0,0,14,TPM-2020-59,144.9463188,-37.79339324,"-37.79339324, 144.9463188"
Post May 16,X0009412,COMPLETED,2023,Melbourne (CBD),103,"196-200 A'Beckett Street, Melbourne, 3000",100160,100161,100159,,,28,0,0,0,0,0,471,665,665,0,0,0,0,0,0,0,0,0,0,0,0,0,0,0,0,144,TP-2020-578,144.9574424,-37.80999239,"-37.80999239, 144.9574424"
Post May 16,X001232,APPLIED,,Melbourne (CBD),16,150-162 Flinders Street MELBOURNE VIC 3000,104020,,,,,31,2,0,0,0,2,0,0,0,0,221,0,221,0,0,3265,0,0,0,0,0,0,0,0,0,0,TP-2015-487,144.9693865,-37.8164856,"-37.8164856, 144.9693865"
Post May 16,X0010400,APPLIED,,North Melbourne,309,"287-313 Macaulay Road, North Melbourne, 3051",106303,,,,,12,120,0,12,78,30,0,0,0,0,0,0,0,0,0,0,2048,0,0,0,0,0,0,0,101,103,TP-2021-53,144.9371088,-37.79545188,"-37.79545188, 144.9371088"
Post May 16,X0011206,APPLIED,,Melbourne (CBD),18,"1 Spring Street, Melbourne, 3000",108975,103912,,,,32,0,0,0,0,0,0,0,0,0,0,0,0,0,0,27484,217,0,0,0,0,0,0,0,176,217,ID-2021-1,144.973791799999,-37.8149933999999,"-37.8149933999999, 144.973791799999"
Post May 16,X0011606,APPLIED,,Southbank,734,51-65 Clarke Street SOUTHBANK VIC 3006,110463,,,,,70,361,0,91,235,35,0,0,0,0,222,0,222,0,0,2870,0,0,0,0,0,0,0,0,176,173,TPM-2016-4/B,144.9597,-37.8273,"-37.8273, 144.9597"
Post May 16,X0011800,APPLIED,,North Melbourne,2390,"280-286 Macaulay Road, North Melbourne, 3051",617410,,,,,12,104,0,24,53,27,0,0,0,0,0,0,0,0,0,0,457,0,0,0,0,0,0,0,119,40,TP-2021-672,144.9369076,-37.79488185,"-37.79488185, 144.9369076"
Post May 16,X0012415,APPLIED,,South Yarra,859,6 Marne Street SOUTH YARRA VIC 3141,106467,,,,,3,8,0,0,0,8,0,0,0,0,0,0,0,0,0,0,0,0,0,0,0,0,0,0,26,9,TP-2021-799,144.9840404,-37.8374168699999,"-37.8374168699999, 144.9840404"
Post May 16,X0012601,APPLIED,,Kensington,512,"30 Albermarle Street, Kensington, 3031",100304,104622,,,,7,64,0,24,33,7,0,0,0,0,0,0,0,0,0,0,312,0,0,0,0,0,0,0,68,64,TP-2022-66,144.9336766,-37.79540759,"-37.79540759, 144.9336766"
Post May 16,X0013004,APPLIED,,North Melbourne,375,"5-17 Flemington Road, North Melbourne, 3051",103810,,,,,23,544,181,226,123,14,0,0,0,0,0,0,0,0,0,0,965,0,0,0,570,0,0,0,242,324,TPM-2022-10,144.955840999999,-37.80142395,"-37.80142395, 144.955840999999"
Post May 16,X0013005,APPLIED,,North Melbourne,375,"5-17 Flemington Road, North Melbourne, 3051",103810,,,,,18,0,0,0,0,0,0,603,603,0,0,0,0,0,0,0,152,0,0,0,0,0,0,0,4,160,TPM-2022-10,144.955840999999,-37.80142395,"-37.80142395, 144.955840999999"
Post May 16,X0013201,APPLIED,,Carlton,268,"1 Rathdowne Street, Carlton, 3053",108147,,,,,13,84,0,1,43,40,0,0,0,0,0,0,0,0,0,615,290,0,0,0,0,0,0,0,188,28,TP-2022-245,144.9684379,-37.8068386599999,"-37.8068386599999, 144.9684379"
Post May 16,X0013402,APPLIED,,Southbank,733,"292 City Road, Southbank, 3006",110396,110397,,,,28,200,0,0,0,0,0,0,0,0,0,0,0,0,0,0,1885,0,0,0,0,0,0,0,113,20,TP-2019-979/A,144.9586155,-37.82675831,"-37.82675831, 144.9586155"
Post May 16,X0013403,APPLIED,,Melbourne (CBD),12,"490 Flinders Street, Melbourne, 3000",103996,104825,,,,24,33,0,0,11,22,0,0,0,0,0,0,0,0,0,0,48,0,0,0,0,0,0,0,10,12,TP-2022-358,144.957991099999,-37.81995062,"-37.81995062, 144.957991099999"
Post Oct 22,X0013700,APPLIED,,Carlton,243,"183-187 Grattan Street, Carlton, 3053",101259,101260,101262,,,15,0,0,0,0,0,365,470,470,0,0,0,0,0,0,0,247,0,0,0,0,0,0,0,0,66,TP-2022-438,144.9627571,-37.80054029,"-37.80054029, 144.9627571"
Post Oct 22,X0013706,APPLIED,,West Melbourne (Industrial),501,"156-174 Kensington Road, West Melbourne, 3003",105234,105233,105232,,,15,192,0,0,0,0,0,0,0,0,0,0,0,0,0,2498,976,0,0,0,0,0,0,0,0,0,TP-2022-481,144.9179043,-37.79896653,"-37.79896653, 144.9179043"
Post Oct 22,X0013707,APPLIED,,Melbourne (CBD),24,"303 Collins Street, Melbourne, 3000",110762,,,,,2,0,0,0,0,0,0,0,0,0,0,0,0,0,0,940,638,0,0,0,0,0,0,0,0,0,TP-2022-511,144.9638217,-37.8166284899999,"-37.8166284899999, 144.9638217"
Post May 16,X000769,APPLIED,,Docklands,772,85-93 Lorimer Street DOCKLANDS VIC 3008,110530,,,,,43,393,0,146,239,8,0,0,0,0,0,0,0,0,0,0,1119,0,0,0,0,0,0,0,375,350,TPM-2014-19/A,144.9414558,-37.8244785799999,"-37.8244785799999, 144.9414558"
Post Oct 22,X0013800,APPLIED,,Southbank,734,"42 Moray Street, Southbank, 3006",110635,110458,,,,56,317,0,98,208,11,0,0,0,0,0,0,0,0,0,3092,103,0,0,0,0,0,0,0,144,171,TPMR-2016-22/B,144.9604137,-37.8275479699999,"-37.8275479699999, 144.9604137"
Post Oct 22,X0013803,APPLIED,,East Melbourne,614,83-91 Albert Street EAST MELBOURNE VIC 3002,100333,,,,,4,14,0,0,0,14,0,0,0,0,0,0,0,0,0,0,0,0,0,0,0,0,0,0,33,16,TP-2022-537,144.985225036391,-37.8109511567826,"-37.8109511567826, 144.985225036391"
Post Oct 22,X0013805,APPLIED,,Kensington,508,2-12 Barrett Street KENSINGTON VIC 3031,100823,103329,,,,6,0,0,0,0,0,0,0,0,0,0,0,0,0,0,10721,1411,0,0,0,0,1182,0,0,242,228,TPM-2022-15,144.933782,-37.7968376999999,"-37.7968376999999, 144.933782"
Post Oct 22,X0013806,APPLIED,,Port Melbourne,791,"21-51 Sardine Street, Port Melbourne, 3207",560363,,,,,3,0,0,0,0,0,0,0,0,0,0,0,0,0,0,4275,0,27920,0,0,0,0,0,0,263,10,TPM-2022-16,144.902595192434,-37.8308158070314,"-37.8308158070314, 144.902595192434"
Post Oct 22,X0014002,APPLIED,,Melbourne (CBD),18,32-44 Flinders Street MELBOURNE VIC 3000,111072,,,,,15,0,0,0,0,0,0,0,0,0,0,0,0,0,0,2678,976,0,0,0,0,0,0,0,0,0,TPM-2015-1/B,144.973199999999,-37.8153999999999,"-37.8153999999999, 144.973199999999"
Post Oct 22,X0014003,APPLIED,,Carlton,257,"154-160 Leicester Street, Carlton, 3053",105516,,,,,3,0,0,0,0,0,0,0,0,0,0,0,0,0,0,0,1152,0,0,0,0,0,0,0,0,12,TP-2022-613,144.960915767427,-37.8024323035482,"-37.8024323035482, 144.960915767427"
Post Oct 22,X0014006,APPLIED,,West Melbourne (Residential),426,559-577 King Street WEST MELBOURNE VIC 3003,105347,,,,,9,155,58,49,48,0,0,0,0,0,0,0,0,0,0,0,298,0,0,0,0,0,0,0,0,0,TPM-2022-20,144.949750599999,-37.80696616,"-37.80696616, 144.949750599999"
Post Oct 22,X0014008,APPLIED,,East Melbourne,656,"66 Jolimont Street, East Melbourne, 3002",105138,,,,,8,9,0,0,0,9,0,0,0,0,0,0,0,0,0,0,99,0,0,0,0,0,0,0,15,32,TP-2018-204/C,144.9805,-37.8181999999999,"-37.8181999999999, 144.9805"
Post Oct 22,X0014014,APPLIED,,Carlton,261,"532 Elizabeth Street, Melbourne, 3000",103288,,,,,6,0,0,0,0,0,0,0,0,0,0,0,0,0,0,19,0,0,0,278,0,260,0,0,0,8,TP-2022-46/A,144.9597496,-37.8055783499999,"-37.8055783499999, 144.9597496"
Post Oct 22,X0014017,APPLIED,,Southbank,807,84-90 Queens Bridge Street SOUTHBANK VIC 3006,108056,110440,,,,66,372,0,140,161,71,0,0,0,0,181,0,181,0,0,471,199,0,0,0,0,0,0,0,111,153,TPM-2013-30/D,144.9599,-37.825,"-37.825, 144.9599"
Post Oct 22,X0014019,APPLIED,,Southbank,736,127-129 Kavanagh Street SOUTHBANK VIC 3006,110412,110441,,,,24,85,0,17,68,0,0,0,0,0,0,0,0,0,0,0,0,0,0,0,0,0,0,0,0,0,TPMR-2010-28/B,144.9620288,-37.8266004099999,"-37.8266004099999, 144.9620288"
Post Oct 22,X0014102,APPLIED,,Port Melbourne,777,310-324 Ingles Street PORT MELBOURNE VIC 3207,110580,110544,,,,2,0,0,0,0,0,0,0,0,0,0,0,0,0,0,117,0,0,500,0,0,0,0,0,0,0,TP-2015-578/B,144.937,-37.8248,"-37.8248, 144.937"
Post Oct 2022,X0014202,APPLIED,,Melbourne (CBD),103,386-412 William Street MELBOURNE VIC 3000,104089,,,,,3,0,0,0,0,0,0,0,0,0,0,0,0,0,0,1278,0,0,0,0,0,0,0,0,0,0,TPM-2013-28/C,144.9561274,-37.80984028,"-37.80984028, 144.9561274"
Post Oct 2022,X0014203,APPLIED,,Melbourne (Remainder),720,409-413 St Kilda Road MELBOURNE VIC 3004,108626,,,,,15,26,0,0,0,26,0,0,0,0,0,0,0,0,0,0,0,0,0,0,0,0,0,0,149,97,TP-2017-812/B,144.9768612,-37.8373654199999,"-37.8373654199999, 144.9768612"
Post Oct 2022,X0014204,APPLIED,,Melbourne (Remainder),720,409-413 St Kilda Road MELBOURNE VIC 3004,108626,,,,,9,15,0,0,0,15,0,0,0,0,0,0,0,0,0,0,0,0,0,0,0,0,0,0,16,4,TP-2017-812/B,144.9768612,-37.8373654199999,"-37.8373654199999, 144.9768612"
Post Oct 2022,X0014205,APPLIED,,Melbourne (CBD),71,"Lonsdale Court 600 Lonsdale Street, Melbourne, 3000",105720,,,,,40,0,0,0,0,0,0,0,0,0,0,0,0,0,0,27990,2157,0,0,0,0,0,0,0,71,230,TPMR-2019-20/D,144.9542959,-37.8141996499999,"-37.8141996499999, 144.9542959"
Post Oct 2022,X0014300,APPLIED,,Southbank,801,"Langham Hotel, 1 Southgate Avenue, Southbank, 3006",110323,,,,,1,0,0,0,0,0,0,0,0,0,5,0,5,0,0,0,0,0,0,0,0,0,0,0,0,0,TP-2023-75,144.966301768706,-37.8207067102166,"-37.8207067102166, 144.966301768706"
Post Oct 2022,X0014301,APPLIED,,Melbourne (CBD),48,"19-21 Bourke Street, Melbourne, 3000",101105,101106,,,,3,0,0,0,0,0,0,0,0,0,0,0,0,0,0,0,1440,0,0,0,0,0,0,0,0,0,TP-2019-80/B,144.972483799999,-37.81177572,"-37.81177572, 144.972483799999"
Post Oct 2022,X0014302,APPLIED,,West Melbourne (Residential),440,"145-147 Rosslyn Street, West Melbourne, 3003",108413,,,,,7,18,8,8,2,0,0,0,0,0,0,0,0,0,0,132,68,0,0,0,0,0,0,0,13,36,TP-2019-535/A,144.9499596,-37.8092583299999,"-37.8092583299999, 144.9499596"
Post May 16,X0011611,APPROVED,,Kensington,2547,"402-432 Macaulay Road, Kensington, 3031",615587,615581,,,,8,107,8,0,71,28,0,0,0,0,0,0,0,0,0,0,0,0,0,0,0,0,0,0,0,0,TPM-2021-19,144.9328137,-37.79421598,"-37.79421598, 144.9328137"
Post May 16,X0011613,APPROVED,,Kensington,2547,"402-432 Macaulay Road, Kensington, 3031",615587,615581,,,,8,78,6,49,16,7,0,0,0,0,0,0,0,0,0,0,662,0,0,0,0,0,0,0,0,0,TPM-2021-19,144.9328137,-37.79421598,"-37.79421598, 144.9328137"
Post May 16,X0012003,APPROVED,,West Melbourne (Industrial),1015,"110-120 Dynon Road, West Melbourne, 3003",103009,,,,,2,0,0,0,0,0,0,0,0,0,0,0,0,0,0,0,0,1386,0,0,0,0,0,0,19,0,TP-2021-769,144.9320421,-37.80310284,"-37.80310284, 144.9320421"
Post May 16,X0012409,APPROVED,,Docklands,773,"194-204 Lorimer Street, Docklands, 3008",561106,,,,,36,414,15,254,145,0,0,0,0,0,0,0,0,0,0,0,124,0,0,0,0,2257,0,853,202,248,TPM-2022-2,144.932428,-37.82173264,"-37.82173264, 144.932428"
Post May 16,X0012413,APPROVED,,Carlton,261,"556 Elizabeth Street, Melbourne, 3000",103284,,,,,4,0,0,0,0,0,0,0,0,0,0,0,0,0,0,890,127,0,0,0,0,0,0,0,0,6,TP-2022-21,144.9595618,-37.80506777,"-37.80506777, 144.9595618"
Post Oct 22,X0013802,APPROVED,,East Melbourne,621,"370 Albert Street, East Melbourne, 3002",100354,100355,,,,9,14,0,0,3,11,0,0,0,0,0,0,0,0,0,1187,53,0,0,0,0,0,0,0,58,39,TP-2019-835/B,144.9789497,-37.80956912,"-37.80956912, 144.9789497"
Post May 16,X0009600,APPROVED,,Docklands,776,"111 Lorimer Street, Docklands, 3008",691493,,,,,29,349,0,145,159,45,0,0,0,0,0,0,0,0,0,1715,321,0,0,0,0,0,0,504,365,395,ID-2020-6,144.9383012,-37.82366888,"-37.82366888, 144.9383012"
Post Oct 22,X0014012,APPROVED,,Melbourne (CBD),84,"337-347 Elizabeth Street, Melbourne, 3000",103211,,,,,10,0,0,0,0,0,0,0,0,0,0,0,0,0,0,0,6923,0,0,0,0,0,0,0,0,44,TP-2020-463/B,144.96123487939,-37.8108443724319,"-37.8108443724319, 144.96123487939"
Post May 16,X0012408,APPROVED,,Southbank,747,"83-89 Coventry Street, Southbank, 3006",110447,,,,,24,174,0,59,115,0,0,0,0,0,0,0,0,0,0,0,152,0,0,0,0,0,0,0,67,194,TP-2016-981/B,144.9672054,-37.83020149,"-37.83020149, 144.9672054"
Post May 16,X0012407,APPROVED,,Docklands,1109,"473 Docklands Drive, Docklands, 3008",593736,,,,,37,234,0,42,116,76,0,0,0,0,0,0,0,0,0,0,0,0,0,0,0,0,0,0,365,150,TPM-2022-1,144.9364581,-37.81624409,"-37.81624409, 144.9364581"
Post May 16,X0012411,APPROVED,,Docklands,1109,"473 Docklands Drive, Docklands, 3008",593736,,,,,24,192,0,75,89,28,0,0,0,0,0,0,0,0,0,0,446,0,0,0,0,0,0,0,184,74,TPM-2022-3,144.9364581,-37.81624409,"-37.81624409, 144.9364581"
Post May 16,X0012800,APPROVED,,Carlton,261,"532 Elizabeth Street, Melbourne, 3000",103288,,,,,6,0,0,0,0,0,0,0,0,0,0,0,0,0,0,8,0,0,0,266,0,311,0,0,0,5,TP-2022-46,144.9597496,-37.80557835,"-37.80557835, 144.9597496"
Post May 16,X0012414,APPROVED,,North Melbourne,2383,"139-149 Boundary Road, North Melbourne, 3051",616902,,,,,12,276,0,102,169,5,0,0,0,0,0,0,0,0,0,0,245,0,0,0,0,0,0,0,234,225,TPM-2020-2/A,144.9392553,-37.79019229,"-37.79019229, 144.9392553"
Post May 16,X0009403,APPROVED,,Port Melbourne,775,850-868 Lorimer Street PORT MELBOURNE VIC 3207,110525,,,,,11,0,0,0,0,0,0,0,0,0,0,0,0,0,0,19895,638,0,0,0,0,0,0,0,246,432,ID-2020-5,144.9347,-37.823,"-37.823, 144.9347"
Post May 16,X0009404,APPROVED,,Port Melbourne,775,850-868 Lorimer Street PORT MELBOURNE VIC 3207,110525,,,,,24,156,0,70,52,34,0,0,0,0,0,0,0,0,0,309,824,0,0,0,0,0,0,0,218,394,ID-2020-5,144.9347,-37.823,"-37.823, 144.9347"
Post May 16,X0011600,APPROVED,,Docklands,773,"120 Lorimer Street, Docklands, 3008",632854,,,,,45,191,0,51,83,57,0,0,0,0,0,0,0,0,0,0,169,0,0,0,0,0,0,0,338,66,TPM-2021-14,144.9406394,-37.8230168,"-37.8230168, 144.9406394"
Post May 16,X0007803,APPROVED,,North Melbourne,2385,"9-101 Alfred Street, North Melbourne, 3051",616891,,,,,12,153,0,61,74,18,0,0,0,0,0,0,0,0,0,4574,126,0,0,0,0,2508,0,0,0,0,TPM-2019-28,144.9381455,-37.79097555,"-37.79097555, 144.9381455"
Post May 16,X0008805,APPROVED,,Docklands,1102,"210 Harbour Esplanade, Docklands, 3008",588807,,,,,23,0,0,0,0,0,0,0,0,0,0,0,0,0,0,25520,316,0,0,0,0,0,0,0,158,0,TPM-2020-22,144.9451755,-37.81318536,"-37.81318536, 144.9451755"
Post May 16,X0012813,APPROVED,,Melbourne (CBD),38,"60 Collins Street, Melbourne, 3000",102164,102165,,,,38,0,0,0,0,0,0,0,0,0,0,0,0,0,0,42174,410,0,0,0,0,0,0,0,41,342,TPMR-2019-25/A,144.9716239,-37.81362025,"-37.81362025, 144.9716239"
Post May 16,X0012004,APPROVED,,West Melbourne (Residential),432,"273 Victoria Street, West Melbourne, 3003",105013,517080,,,,4,0,0,0,0,0,0,0,0,0,0,0,0,0,0,0,0,0,0,2053,0,0,0,0,23,58,TPM-2020-65/A,144.9528555,-37.80617254,"-37.80617254, 144.9528555"
Post May 16,X0011603,APPROVED,,Melbourne (CBD),46,"235-251 Bourke Street, Melbourne, 3000",101137,,,,,3,0,0,0,0,0,0,0,0,0,0,0,0,0,0,0,4840,0,0,0,0,0,0,0,25,230,TP-2021-568,144.966619,-37.81373805,"-37.81373805, 144.966619"
Post May 16,X0009201,APPROVED,,Melbourne (CBD),114,"450 Queen Street, Melbourne, 3000",108098,108099,108100,,,22,146,0,61,85,0,0,0,0,0,0,0,0,0,0,0,1605,0,0,0,0,0,0,0,0,256,TPMR-2020-49,144.9582814,-37.80821615,"-37.80821615, 144.9582814"
Post May 16,X0010008,APPROVED,,Melbourne (CBD),64,"360 Little Bourke Street, Melbourne, 3000",105874,,,,,14,0,0,0,0,0,0,0,0,0,0,0,0,0,0,7743,276,0,0,0,0,0,0,0,0,72,TP-2020-804,144.9619011,-37.81322895,"-37.81322895, 144.9619011"
Post May 16,X0008004,APPROVED,,Southbank,733,"292 City Road, Southbank, 3006",110396,110397,,,,28,0,0,0,0,0,0,0,0,0,380,0,380,0,0,0,0,0,0,0,0,0,0,0,27,20,TP-2019-979,144.9586155,-37.82675831,"-37.82675831, 144.9586155"
Post May 16,X0009604,APPROVED,,North Melbourne,2390,"302 Macaulay Road, North Melbourne, 3051",617432,617431,,,,2,0,0,0,0,0,0,0,0,0,0,0,0,0,0,0,0,0,0,1451,0,0,0,0,6,18,TP-2020-622,144.9364514,-37.79483833,"-37.79483833, 144.9364514"
Post May 16,X0011205,APPROVED,,Melbourne (CBD),12,490 Flinders Street MELBOURNE VIC 3000,103996,,,,,12,0,0,0,0,0,0,0,0,0,0,0,0,0,0,1448,179,0,0,0,0,0,0,0,0,0,TP-2018-519/A,144.958,-37.82,"-37.82, 144.958"
Post May 16,X0008400,APPROVED,,North Melbourne,2383,"68-102 Alfred Street, North Melbourne, 3051",616927,,,,,12,0,0,0,0,0,0,0,0,0,0,0,0,0,0,8031,0,0,0,0,0,0,0,0,274,488,TPM-2020-1,144.9382666,-37.79014196,"-37.79014196, 144.9382666"
Post May 16,X0008401,APPROVED,,North Melbourne,2383,"68-102 Alfred Street, North Melbourne, 3051",616927,,,,,9,0,0,0,0,0,0,0,0,0,0,0,0,0,130,3889,73,0,0,0,0,0,0,0,0,0,TPM-2020-1,144.9382666,-37.79014196,"-37.79014196, 144.9382666"
Post May 16,X0008403,APPROVED,,North Melbourne,2383,"68-102 Alfred Street, North Melbourne, 3051",616927,,,,,12,185,0,32,119,34,0,0,0,0,0,0,0,0,0,0,253,0,0,0,0,0,0,0,0,0,TPM-2020-1,144.9382666,-37.79014196,"-37.79014196, 144.9382666"
Post May 16,X0008803,APPROVED,,Carlton,261,"600-608 Elizabeth Street, Melbourne, 3000",103277,103278,107877,567656,,17,0,0,0,0,0,0,0,0,0,0,0,0,0,0,18963,2149,0,0,0,0,0,0,0,60,135,TPM-2020-18,144.9590851,-37.80430846,"-37.80430846, 144.9590851"
Post May 16,X0009214,APPROVED,,East Melbourne,606,"12-18 Wellington Parade, East Melbourne, 3002",110015,110016,,,,10,20,0,1,12,7,0,0,0,0,0,0,0,0,0,0,0,0,0,0,0,0,0,0,63,0,TP-2020-502,144.9894722,-37.81663357,"-37.81663357, 144.9894722"
Post May 16,X0009413,APPROVED,,Melbourne (CBD),45,"318-322 Little Collins Street, Melbourne, 3000",105960,,,,,12,0,0,0,0,0,0,0,0,0,135,0,135,0,0,0,382,0,0,0,0,0,0,0,0,14,TP-2020-580,144.9640096,-37.81488658,"-37.81488658, 144.9640096"
Post May 16,X0010011,APPROVED,,East Melbourne,614,Freemasons Hospital 162-198 Clarendon Street EAST MELBOURNE VIC 3002,102005,,,,,11,0,0,0,0,0,0,0,0,0,0,0,0,0,0,0,0,0,0,0,8612,0,0,0,0,0,TP-2020-838,144.9842,-37.8111,"-37.8111, 144.9842"
Post May 16,X0008010,APPROVED,,Melbourne (CBD),72,"572-574 Lonsdale Street, Melbourne, 3000",105721,105378,105377,,,21,0,0,0,0,0,0,0,0,0,0,0,0,0,0,24786,696,0,0,0,0,0,0,0,60,145,TPMR-2019-34,144.9553811,-37.81402688,"-37.81402688, 144.9553811"
Post May 16,X0009202,APPROVED,,Melbourne (CBD),83,"383 La Trobe Street, Melbourne, 3000",105457,,,,,33,0,0,0,0,0,0,0,0,0,0,0,0,0,0,44003,676,0,0,0,0,0,0,0,154,377,TPMR-2020-52,144.9581378,-37.81163992,"-37.81163992, 144.9581378"
Post May 16,X0009208,APPROVED,,North Melbourne,2387,"77 Sutton Street, North Melbourne, 3051",617482,,,,,12,213,0,83,117,13,0,0,0,0,0,0,0,0,0,205,150,0,0,0,0,0,0,0,208,287,TPM-2020-54,144.9383302,-37.79250491,"-37.79250491, 144.9383302"
Post May 16,X0010005,APPROVED,,Southbank,730,57-59 Haig Street SOUTHBANK VIC 3006,110471,,,,,39,190,0,108,82,0,0,0,0,0,0,0,0,0,0,2408,0,0,0,0,0,0,0,0,75,146,TPM-2013-2/B,144.957,-37.8276,"-37.8276, 144.957"
Post May 16,X0008012,APPROVED,,North Melbourne,345,"8-10 Curzon Place, North Melbourne, 3051",621971,,,,,3,14,1,12,0,1,0,0,0,0,0,0,0,0,0,0,0,0,0,0,0,0,0,0,2,0,TP-2019-1011,144.9485325,-37.80399855,"-37.80399855, 144.9485325"
Post May 16,X0009205,APPROVED,,Melbourne (CBD),13,"22-38 William Street, Melbourne, 3000",110151,,,,,11,0,0,0,0,0,0,0,0,0,0,0,0,0,0,6048,581,0,0,0,0,0,0,0,0,28,TP-2020-417,144.9599652,-37.81877678,"-37.81877678, 144.9599652"
Post May 16,X0009206,APPROVED,,West Melbourne (Residential),429,137-157 Adderley Street WEST MELBOURNE VIC 3003,100195,,,,,7,96,5,79,12,0,0,0,0,0,0,0,0,0,0,0,953,0,0,0,0,0,0,0,93,51,TP-2017-395/A,144.9468,-37.8101,"-37.8101, 144.9468"
Post May 16,X0009803,APPROVED,,Melbourne (CBD),54,"418-420 Bourke Street, Melbourne, 3000",101184,,,,,4,3,0,0,3,0,0,0,0,0,0,0,0,0,0,0,150,0,0,0,0,0,0,0,0,0,TP-2020-689,144.9613506,-37.81453497,"-37.81453497, 144.9613506"
Post May 16,X0007414,APPROVED,,West Melbourne (Residential),402,"503-509 Victoria Street, West Melbourne, 3003",109757,,,,,8,14,0,0,1,13,0,0,0,0,0,0,0,0,0,0,97,0,0,0,0,0,0,0,24,18,TP-2019-582,144.9428676,-37.80467688,"-37.80467688, 144.9428676"
Post May 16,X0008812,APPROVED,,Docklands,1110,277-321 Footscray Road DOCKLANDS VIC 3008,608589,,,,,0,0,0,0,0,0,0,0,0,0,0,0,0,0,0,0,0,0,0,0,0,0,0,0,324,0,TP-2020-307,144.9404,-37.8118,"-37.8118, 144.9404"
Post May 16,X0009217,APPROVED,,West Melbourne (Residential),403,"473-479 Victoria Street, West Melbourne, 3003",109753,,,,,4,0,0,0,0,0,0,0,0,0,0,0,0,0,0,580,0,0,0,0,0,0,0,0,10,0,TP-2020-504,144.9439091,-37.80486348,"-37.80486348, 144.9439091"
Post May 16,X0009211,APPROVED,,North Melbourne,2383,"75 Racecourse Road, North Melbourne, 3051",616895,,,,,12,96,0,52,42,2,0,0,0,0,0,0,0,0,0,0,0,0,0,0,0,0,0,302,54,215,TP-2020-460,144.9394179,-37.78945476,"-37.78945476, 144.9394179"
Post May 16,X0009801,APPROVED,,Carlton,260,"618-630 Elizabeth Street, Melbourne, 3000",103273,,,,,16,0,0,0,0,0,416,740,740,0,0,0,0,0,0,0,75,0,0,0,0,0,0,0,0,148,TP-2020-7/A,144.9589,-37.8037,"-37.8037, 144.9589"
Post May 16,X0007607,APPROVED,,Melbourne (CBD),51,640-652 Bourke Street MELBOURNE VIC 3000,101168,,,,,71,857,0,537,275,45,0,0,0,0,0,0,0,0,0,0,647,0,0,0,0,0,320,0,193,387,TPM-2015-26/A,144.9544085,-37.81617703,"-37.81617703, 144.9544085"
Post May 16,X0005802,APPROVED,,Melbourne (CBD),16,"7-9 Hosier Lane, Melbourne, 3000",104931,,,,,11,0,0,0,0,0,0,0,0,0,0,36,36,0,0,0,0,0,0,0,0,0,0,0,0,0,TP-2019-36,144.969,-37.8164,"-37.8164, 144.969"
Post May 16,X0006201,APPROVED,,North Melbourne,2383,"87-105 Racecourse Road, North Melbourne, 3051",616843,,,,,12,72,0,38,34,0,0,0,0,0,0,110,110,0,0,1825,0,0,0,0,0,1235,0,0,122,166,TP-2019-196,144.9389,-37.7898,"-37.7898, 144.9389"
Post May 16,X0004404,APPROVED,,Docklands,1108,Victoria Harbour Precinct 938 Collins Street DOCKLANDS VIC 3008,106983,,,,,28,326,0,92,177,57,0,0,0,0,0,0,0,0,0,0,0,0,0,0,0,0,0,0,592,331,TPM-2018-14,144.9367403,-37.81977616,"-37.81977616, 144.9367403"
Post May 16,X0005617,APPROVED,,Melbourne (CBD),31,"577-583 Little Collins Street, Melbourne, 3000",105941,,,,,22,4,0,0,0,4,0,0,0,0,0,0,0,0,0,8111,1559,0,0,0,0,0,0,0,11,24,TP-2018-1163,144.9556063,-37.81782616,"-37.81782616, 144.9556063"
Post May 16,X0006405,APPROVED,,North Melbourne,377,48-50 Villiers Street NORTH MELBOURNE VIC 3051,109861,,,,,11,0,0,0,0,0,0,0,0,0,75,0,75,0,0,0,0,0,0,0,0,0,0,0,0,4,TP-2016-29/A,144.9535,-37.7995,"-37.7995, 144.9535"
Post May 16,X0007422,APPROVED,,North Melbourne,359,341-347 Queensberry Street NORTH MELBOURNE VIC 3051,107886,,,,,9,0,0,0,0,0,0,0,0,0,90,0,90,0,0,0,0,0,0,0,0,0,0,0,0,3,TP-2017-958/A,144.9567,-37.8041,"-37.8041, 144.9567"
Post May 16,X0007424,APPROVED,,Southbank,802,"118 City Road, Southbank, 3006",110384,,,,,58,0,0,0,0,0,0,0,0,0,202,120,322,0,100,29006,33530,0,0,0,0,8684,0,0,353,1183,TPMR-2019-24/B,144.9629471,-37.8229282,"-37.8229282, 144.9629471"
Post May 16,X001322,APPROVED,,Southbank,802,158-164 City Road SOUTHBANK VIC 3006,110382,,,,,65,722,0,500,222,0,0,0,0,0,0,0,0,0,0,502,1377,0,0,0,0,0,0,0,252,284,TPM-2010-8/A,144.9623445,-37.82337644,"-37.82337644, 144.9623445"
Post May 16,X0004808,APPROVED,,Melbourne (CBD),114,96-102 Franklin Street MELBOURNE VIC 3000,104099,,,,,22,72,0,24,48,0,0,0,0,0,0,0,0,0,0,6543,791,0,0,0,0,0,0,0,11,53,TP-2018-429,144.9595186,-37.80804379,"-37.80804379, 144.9595186"
Post May 16,X0006408,APPROVED,,West Melbourne (Industrial),1015,"10 Radcliffe Street, West Melbourne, 3003",108120,,,,,2,0,0,0,0,0,0,0,0,0,0,0,0,0,0,0,0,1998,0,0,0,0,0,0,28,9,TP-2019-307,144.9321014,-37.80259465,"-37.80259465, 144.9321014"
Post May 16,X0008009,APPROVED,,Southbank,729,64-68 Clarendon Street SOUTHBANK VIC 3006,110490,,,,,32,0,0,0,0,0,0,0,0,0,196,0,196,0,0,0,0,0,0,0,0,0,0,0,0,40,TP-2015-60/A,144.9573,-37.8267,"-37.8267, 144.9573"
Post May 16,X0005618,APPROVED,,North Melbourne,360,300-308 Victoria Street NORTH MELBOURNE VIC 3051,109830,,,,,10,0,0,0,0,0,0,0,0,0,119,0,119,0,0,0,237,0,0,0,0,0,0,0,0,25,TP-2018-1168,144.9563893,-37.80563013,"-37.80563013, 144.9563893"
Post May 16,X0005208,APPROVED,,Melbourne (Remainder),710,Royce Hotel 375-385 St Kilda Road MELBOURNE VIC 3004,108617,,,,,8,0,0,0,0,0,0,0,0,0,66,0,66,0,0,0,0,0,0,0,0,0,0,0,0,0,TP-2011-404/C,144.9755401,-37.83508742,"-37.83508742, 144.9755401"
Post May 16,X0005002,APPROVED,,North Melbourne,2383,"87-105 Racecourse Road, North Melbourne, 3051",616843,,,,,12,59,0,10,47,2,0,0,0,0,0,0,0,0,0,0,205,0,0,0,0,0,0,0,0,0,TP-2018-770,144.9389291,-37.78983527,"-37.78983527, 144.9389291"
Post May 16,X0004406,APPROVED,,Port Melbourne,786,157-171 Salmon Street PORT MELBOURNE VIC 3207,110588,,,,,9,0,0,0,0,0,0,0,0,0,0,0,0,0,0,7140,1380,0,0,0,0,0,0,0,190,64,TP-2018-485,144.9212377,-37.82732829,"-37.82732829, 144.9212377"
Post May 16,X0002206,APPROVED,,Carlton,257,4-12 Leicester Place CARLTON VIC 3053,105507,,,,,15,0,0,0,0,0,0,0,0,0,0,222,222,0,0,0,0,0,0,0,0,0,0,0,6,50,TP-2017-616,144.9611847,-37.80275817,"-37.80275817, 144.9611847"
Post May 16,X0004412,APPROVED,,Melbourne (CBD),64,14-20 Goldie Place MELBOURNE VIC 3000,104376,,,,,13,0,0,0,0,0,0,0,0,0,70,0,70,0,0,0,0,0,0,0,0,0,0,0,0,8,TP-2014-269/A,144.9607316,-37.81328635,"-37.81328635, 144.9607316"
Post May 16,X0003805,APPROVED,,Southbank,808,87-89 Queens Bridge Street SOUTHBANK VIC 3006,108049,108048,108047,,,25,123,0,40,65,18,0,0,0,0,0,0,0,0,0,0,0,0,0,0,0,0,0,0,0,0,ID-2016-6,144.9609935,-37.82460797,"-37.82460797, 144.9609935"
Post May 16,X0003806,APPROVED,,Melbourne (CBD),104,449-451 Elizabeth Street MELBOURNE VIC 3000,103228,103227,104082,,,39,237,0,139,86,12,0,0,0,0,0,0,0,0,0,0,2096,0,0,0,0,0,0,0,106,111,TPM-2014-40/A,144.9602155,-37.80856361,"-37.80856361, 144.9602155"
Post May 16,X0003408,APPROVED,,Carlton,242,Melbourne University 197-235 Bouverie Street CARLTON VIC 3053,101255,,,,,7,0,0,0,0,0,0,0,0,0,0,0,0,0,0,6575,23,0,0,1820,0,0,0,0,0,0,TP-2018-75,144.9616182,-37.80103675,"-37.80103675, 144.9616182"
Post May 16,X0003218,APPROVED,,North Melbourne,333,618-622 Queensberry Street NORTH MELBOURNE VIC 3051,107971,,,,,3,8,0,0,5,3,0,0,0,0,0,0,0,0,0,0,0,0,0,0,0,0,0,0,7,8,TP-2015-1207/A,144.9468137,-37.80249054,"-37.80249054, 144.9468137"
Post May 16,X0002811,APPROVED,,Melbourne (CBD),62,Great Western Hotel 204-208 King Street MELBOURNE VIC 3000,105384,,,,,26,64,0,28,36,0,0,0,0,0,0,0,0,0,0,0,130,0,0,0,0,0,0,0,4,18,TP-2016-1105/A,144.9554834,-37.81521185,"-37.81521185, 144.9554834"
Post May 16,X0001617,APPROVED,,Melbourne (Remainder),760,493-495 St Kilda Road MELBOURNE VIC 3004,108641,,,,,20,148,0,19,73,56,0,0,0,0,0,0,0,0,0,0,0,0,0,0,0,0,0,0,235,172,TPM-2016-29,144.9789046,-37.84293232,"-37.84293232, 144.9789046"
Post May 16,X0001644,APPROVED,,Carlton,256,204-208 Queensberry Street CARLTON VIC 3053,108027,108028,,,,15,0,0,0,0,0,136,229,229,0,0,0,0,0,0,0,94,0,0,0,0,0,0,0,0,46,TP-2017-85,144.9621355,-37.8042253,"-37.8042253, 144.9621355"
Post May 16,X001342,APPROVED,,Melbourne (CBD),84,274-278 Little Lonsdale Street MELBOURNE VIC 3000,106045,,,,,32,0,0,0,0,0,0,0,0,0,181,0,181,0,0,0,0,0,0,0,0,0,0,0,0,0,TP-2016-290,144.9611832,-37.81117946,"-37.81117946, 144.9611832"
Post May 16,X001235,APPROVED,,North Melbourne,317,36-58 Macaulay Road NORTH MELBOURNE VIC 3051,106337,,,,,13,132,0,24,108,0,0,0,0,0,0,0,0,0,0,0,183,0,0,0,0,0,0,0,176,170,TP-2015-533,144.942986,-37.79861103,"-37.79861103, 144.942986"
Post May 16,X001580,APPROVED,,West Melbourne (Residential),402,513-521 Victoria Street WEST MELBOURNE VIC 3003,109153,,,,,6,26,0,6,20,0,0,0,0,0,0,0,0,0,0,0,52,0,0,0,0,0,0,0,19,28,TP-2016-426,144.9423603,-37.80461966,"-37.80461966, 144.9423603"
Post May 16,X001583,APPROVED,,Carlton,255,152-154 Queensberry Street CARLTON VIC 3053,108030,,,,,13,10,0,4,6,0,0,0,0,0,0,64,64,0,0,0,84,0,0,0,0,0,0,0,8,15,TP-2013-736/A,144.9638675,-37.80433097,"-37.80433097, 144.9638675"
Post May 16,X001364,APPROVED,,Melbourne (CBD),95,62-64 Little La Trobe Street MELBOURNE VIC 3000,105983,,,,,13,12,0,0,12,0,0,0,0,0,0,0,0,0,0,0,53,0,0,0,0,0,0,0,0,12,TP-2015-1050,144.9618907,-37.80940166,"-37.80940166, 144.9618907"
Post May 16,X001293,APPROVED,,Southbank,736,93-119 Kavanagh Street SOUTHBANK VIC 3006,706730,110408,,,,56,429,0,169,260,0,0,0,0,0,0,0,0,0,0,0,0,0,0,0,0,0,0,0,90,0,TPM-2015-18,144.9635897,-37.82570384,"-37.82570384, 144.9635897"
Post May 16,X001202,APPROVED,,North Melbourne,357,399-405 Queensberry Street NORTH MELBOURNE VIC 3051,107890,,,,,4,12,0,4,6,2,0,0,0,0,0,0,0,0,0,0,320,0,0,0,0,0,0,0,8,18,TP-2015-82/A,144.9543147,-37.80378674,"-37.80378674, 144.9543147"
Post May 16,X0001661,APPROVED,,Melbourne (CBD),105,48-50 A'Beckett Street MELBOURNE VIC 3000,100171,,,,,43,0,0,0,0,0,419,541,541,0,0,0,0,0,0,0,132,0,0,0,0,0,0,0,0,172,TP-2010-925/E,144.9616417,-37.80857169,"-37.80857169, 144.9616417"
Post May 16,X0009602,APPROVED,,Kensington,570,"Flemington Racecourse, 500 Epsom Road, Flemington, 3031",108810,707339,,,,15,315,0,44,183,88,0,0,0,0,0,0,0,0,0,0,391,0,0,0,0,0,0,0,401,327,TPM-2018-16/B,144.9129,-37.7891,"-37.7891, 144.9129"
Post May 16,X001536,UNDER CONSTRUCTION,,Melbourne (CBD),35,273-279 Little Collins Street MELBOURNE VIC 3000,105922,,,,,3,0,0,0,0,0,0,0,0,0,0,37,37,0,0,0,0,0,0,0,0,0,0,0,0,0,TP-2016-683,144.9653695,-37.81490297,"-37.81490297, 144.9653695"
Post May 16,X0006400,UNDER CONSTRUCTION,,North Melbourne,363,"611-669 Elizabeth Street, Melbourne, 3000",103251,103252,103253,,,18,0,0,0,0,0,0,0,0,0,0,0,0,0,0,14275,1382,0,0,20445,0,0,0,0,180,310,TPM-2019-6,144.9574997,-37.80324692,"-37.80324692, 144.9574997"
Post May 16,X0006600,UNDER CONSTRUCTION,,Melbourne (CBD),44,"10-16 Mckillop Street, Melbourne, 3000",106375,,,,,7,0,0,0,0,0,0,0,0,0,0,0,0,0,0,963,822,0,0,0,0,0,0,0,0,0,TP-2019-342,144.9619028,-37.81533109,"-37.81533109, 144.9619028"
Post May 16,X0006406,UNDER CONSTRUCTION,,Southbank,732,39-51 Hancock Street SOUTHBANK VIC 3006,110462,110461,,,,34,175,0,41,133,1,0,0,0,0,0,0,0,0,0,2366,153,0,0,0,0,0,0,0,96,64,TP-2016-274/A,144.9588,-37.828,"-37.828, 144.9588"
Post May 16,X0009400,UNDER CONSTRUCTION,,Melbourne (CBD),21,539-557 Collins Street MELBOURNE VIC 3000,102105,105296,,,,35,0,0,0,0,0,0,0,0,0,0,0,0,0,0,82850,2390,0,0,0,0,0,0,0,118,693,TPMR-2019-9/A,144.9564,-37.8188,"-37.8188, 144.9564"
Post May 16,X0002600,UNDER CONSTRUCTION,,Melbourne (Remainder),720,409-413 St Kilda Road MELBOURNE VIC 3004,108626,,,,,15,32,0,5,0,27,0,0,0,0,0,0,0,0,0,0,0,0,0,0,0,0,0,0,75,113,TP-2017-812/A,144.9768612,-37.83736542,"-37.83736542, 144.9768612"
Post May 16,X0002601,UNDER CONSTRUCTION,,Melbourne (Remainder),720,409-413 St Kilda Road MELBOURNE VIC 3004,108626,,,,,8,15,0,0,0,15,0,0,0,0,0,0,0,0,0,0,0,0,0,0,0,0,0,0,72,12,TP-2017-812/A,144.9768612,-37.83736542,"-37.83736542, 144.9768612"
Post May 16,X0002211,UNDER CONSTRUCTION,,Kensington,512,347-367 Macaulay Road KENSINGTON VIC 3031,106304,,,,,7,56,0,0,23,33,0,0,0,0,0,0,0,0,0,0,0,0,0,0,0,0,0,0,103,0,TP-2017-709,144.934782,-37.79523015,"-37.79523015, 144.934782"
Post May 16,X000146,COMPLETED,2023,Melbourne (CBD),58,20-30 Bourke Street MELBOURNE VIC 3000,101233,,,,,8,0,0,0,0,0,0,0,0,0,78,0,78,0,0,0,0,0,0,0,0,0,0,0,46,15,TP-2014-64,144.9721526,-37.811187,"-37.811187, 144.9721526"
Post May 16,X0006809,UNDER CONSTRUCTION,,West Melbourne (Residential),419,172-184 Roden Street WEST MELBOURNE VIC 3003,108367,108368,,,,7,172,0,98,60,14,0,0,0,0,0,0,0,0,0,0,0,0,0,0,0,0,0,0,188,121,TP-2018-88/A,144.9460503,-37.80853781,"-37.80853781, 144.9460503"
Post May 16,X0001650,UNDER CONSTRUCTION,,West Melbourne (Residential),430,"137 Stanley Street, West Melbourne, 3003",109015,108423,,,,4,18,0,0,0,18,0,0,0,0,0,0,0,0,0,0,0,0,0,0,0,0,0,0,24,0,TP-2017-147,144.9474565,-37.80962821,"-37.80962821, 144.9474565"
